order_id,customer_id,date,nearest_warehouse,shopping_cart,order_price,delivery_charges,customer_lat,customer_long,coupon_discount,order_total,season,is_expedited_delivery,distance_to_nearest_warehouse,latest_customer_review,is_happy_customer
ORD172562,ID0600326380,2019-08-10,Nickolson,"[('Universe Note', 2), ('pearTV', 2), ('Candle Inferno', 2)]",20380,69.77,-37.79890620000001,144.9726129,0,20449.77,Winter,True,2.2082,fingerprint sensor dont work on this version when i get the cellfone i noticed that the box does not have the headphones. i bought two xperia xz and both dont have the headphones. and they have to be clearer that the fingerprint sensor dont work on this version,False
ORD021085,ID2688454941,2019-09-12,Bakers,"[('Alcon 10', 1), ('Universe Note', 2), ('Lucent 330S', 2), ('iStream', 2)]",18610,102.83,-37.8175101,144.99580509999996,5,17782.33,Spring,True,0.838,great teen phones! great value! these phones are like new! perfect for teens!! thank you!!!,True
ORD228194,ID2789606898,2019-02-23,Bakers,"[('Olivia x460', 1), ('pearTV', 1)]",7535,76.29,-37.8029669,144.98318840000005,15,6481.04,Summer,False,1.3169,love this phone coming from a pixel xl and the the camera on the olivia is 1000x better. really enjoying the phone,True
ORD094308,ID0775941601,2019-12-15,Thompson,"[('iStream', 2), ('Toshika 750', 1), ('Thunder line', 2), ('Olivia x460', 1)]",10205,85.14,-37.80609370000001,144.959426,0,10290.14,Summer,True,1.3105,"only 90 day warranty from digico.com well purchasing this pixel xl while on backorder from digico.com, description read 1 year mfg warranty, but not true, its only for 90 days",False
ORD224550,ID1889485053,2019-07-30,Bakers,"[('Olivia x460', 1), ('pearTV', 1)]",7535,99.07,-37.8158343,145.04645,15,6503.82,Winter,True,4.5509,great phone for the price really awesome phone with great camera and slick design. only big issue i have with it is the lack of audio jack,True
ORD086496,ID3218293542,2019-05-03,Thompson,"[('Olivia x460', 1), ('Thunder line', 2), ('Universe Note', 1)]",9035,80.04,-37.80493010000001,144.9528866,5,8663.29,Autumn,True,1.0024,good stuff as expected thank you,True
ORD222802,ID0332797046,2019-08-16,Bakers,"[('Thunder line', 2), ('Candle Inferno', 1)]",4790,75.66,-37.8095744,145.00032040000005,15,4147.16,Winter,True,0.45,"great buy nice, what i needed and wanted, a great gift to myself.",True
ORD254807,ID0282825744,2019-01-03,Thompson,"[('Alcon 10', 2), ('Candle Inferno', 2), ('iAssist Line', 1), ('Toshika 750', 2)]",29625,78.22,-37.8024255,144.95339199999995,15,25259.47,Summer,False,1.2691,"satisfied customer great phone, fair price, excellent shipping and handling",True
ORD449121,ID0579507010,2019-10-23,Thompson,"[('Candle Inferno', 1), ('Alcon 10', 2), ('iAssist Line', 2), ('pearTV', 1)]",29090,97.58,-37.8139659,144.94874950000005,25,21915.08,Spring,True,0.2063,five stars good value for a basic phone.,True
ORD244187,ID0387152990,2019-05-23,Thompson,"[('Universe Note', 2), ('Thunder line', 1)]",9080,115.59,-37.810586,144.9501666,10,8287.59,Autumn,True,0.358,suggested by the sales associate i'm glad i took his suggestion,True
ORD264395,ID5648622173,2019-10-04,Thompson,"[('Candle Inferno', 1), ('iAssist Line', 1), ('pearTV', 1), ('Lucent 330S', 2)]",11425,110.67,-37.80026420000001,144.9635872,15,9821.92,Spring,True,2.0047,great phone phone was great..the only problem was i didnt realize that i needed a sim card so it took a little longer for me to activate it but very happy with phone battery life isnt great,True
ORD345640,ID0289597227,2019-05-01,Thompson,"[('Lucent 330S', 2), ('iAssist Line', 2)]",6910,79.19,-37.8114334,144.95132130000005,10,6298.19,Autumn,True,0.3986,five stars thanks,True
ORD273147,ID0030942766,2019-11-16,Thompson,"[('iStream', 1), ('iAssist Line', 1), ('Universe Note', 1)]",5825,100.72,-37.8050836,144.9479156,0,5925.72,Spring,True,0.8481,i love my phone :) i was looking to upgrade my 5s and at first i was skeptical about buying the 7. but it came in perfect condition and was worth the money! no scratches or dents even though its used.,True
ORD379994,ID0196907921,2019-05-30,Nickolson,"[('Alcon 10', 1), ('Thunder line', 2)]",13310,66.67,-37.8275691,144.9581941,10,12045.67,Autumn,False,1.4125,"satisfied purchase for my mom and she is satisfied, it is unlock",True
ORD490180,ID2569100372,2019-09-21,Bakers,"[('Toshika 750', 2), ('pearTV', 1), ('Olivia x460', 1), ('iStream', 1)]",16325,33.25,-37.8234541,144.9937219,25,12277.0,Spring,False,1.504,sucks phone lasts 10 minutes. i would hardly say that's 70% won't buy from you again,False
ORD207660,ID0030220690,2019-06-29,Bakers,"[('Olivia x460', 1), ('Alcon 10', 2), ('Toshika 750', 2), ('Lucent 330S', 2)]",30225,54.8,-37.8246023,144.9888876,5,28768.55,Winter,False,1.719,defective product - phone stops working in a few months phone barely lasted 6 months. at first i had battery issues and now the phone won't start. the seller is clearly selling defective batched of product. i would suggest to stay away.,False
ORD325845,ID2266562019,2019-09-11,Thompson,"[('Toshika 750', 2), ('pearTV', 1), ('Thunder line', 1), ('iStream', 2)]",17430,99.99,-37.8116326,144.95668419999996,5,16658.49,Spring,True,0.8535,money well spent like new device. came as a t-mobile phone but wats easily moved to at$t. highly recommend for the money.,True
ORD170565,ID0579478356,2019-01-08,Thompson,"[('Thunder line', 1), ('Candle Inferno', 1), ('pearTV', 1)]",8920,75.9,-37.8204111,144.95337419999996,5,8549.9,Summer,False,1.0244,"similar to the s9, but so much cheaper! took some time before i bought the phone, but it was perfect in the end! great battery life. great cameras. great storage and ram. if only it had a finger print scanner. but it's just as good as the universe s9!",True
ORD181360,ID2177124616,2019-02-06,Thompson,"[('Candle Inferno', 1), ('iAssist Line', 2), ('Lucent 330S', 2), ('iStream', 2)]",7640,59.35,-37.8158954,144.9571814,5,7317.35,Summer,False,0.9589,"product defected note 8, not holding a charge and over heating",False
ORD188002,ID0595594349,2019-07-25,Nickolson,"[('Universe Note', 2), ('Olivia x460', 1), ('pearTV', 1)]",14435,63.88,-37.8102909,144.9692455,25,10890.13,Winter,True,0.9248,dislike i dislike the fact that the id i'm supposed to use with the phone isn't even available where i registered the phone.,False
ORD477511,ID6226313835,2019-02-26,Nickolson,"[('Alcon 10', 1), ('iAssist Line', 2)]",13400,79.15,-37.8240192,144.98487519999995,15,11469.15,Summer,False,1.4766,fast phone fast phone nice camera,True
ORD462088,ID0663469701,2019-08-20,Bakers,"[('Thunder line', 2), ('iStream', 2)]",4660,72.24,-37.799771,144.9750334,10,4266.24,Winter,False,2.1099,good 1st generation phone from google good for a 1st generation. if you already used google for many products and services this phone will fit perfectly into your media environment.,True
ORD302401,ID3222703108,2019-06-30,Thompson,"[('iAssist Line', 2), ('Candle Inferno', 2)]",5310,69.03,-37.8030141,144.95607859999996,15,4582.53,Winter,False,1.3357,best phone ever had this phone for three years loved it. i can't wait to get another.,True
ORD423364,ID5668009767,2019-09-05,Bakers,"[('Candle Inferno', 2), ('Alcon 10', 1), ('iStream', 1)]",9960,90.76,-37.7993409,145.0019329,10,9054.76,Spring,True,1.3245,"no es ""global"", it's not ""global"" este producto no es ""global"", lo utilice 2 dias, la huella no es precisa. luego de los 2 dias comenz贸 con problemas en la pantalla. ahora esta en reparaci贸n a ver si pueden formatearlo e instalar nuevamente un soft apto para su uso fuera de china. me siento estafado por el titulo ""global"" en la publicaci贸n.",False
ORD216255,ID6200183408,2019-05-18,Thompson,"[('Alcon 10', 2), ('iAssist Line', 2), ('Candle Inferno', 2)]",23210,79.76,-37.820463,144.9512264,10,20968.76,Autumn,True,0.9411,five stars i love it.,True
ORD187780,ID0260906813,2019-12-15,Bakers,"[('Olivia x460', 2), ('Toshika 750', 2)]",11090,103.66,-37.8205572,145.0116272,10,10084.66,Summer,True,1.8603,great phone fully functional with no issues.,True
ORD072712,ID0054552820,2019-09-20,Nickolson,"[('pearTV', 2), ('Toshika 750', 2)]",21260,80.36,-37.8205902,144.9838249,5,20277.36,Spring,False,1.2747,this is the nicest phone i've ever had. i ... this is the nicest phone i've ever had. i was worried buying something this expensive from somewhere other than the manufacturer but it arrived on time and in the original box. was a breeze setting up and the resolution is absolutely amazing,True
ORD447450,ID0253027643,2019-07-24,Thompson,"[('Universe Note', 2), ('iAssist Line', 1), ('Thunder line', 2), ('Alcon 10', 2)]",31385,52.08,-37.8245451,144.9469959,5,29867.83,Winter,False,1.3216,two stars not happy but at least its cheap,False
ORD375227,ID0596909581,2019-09-26,Nickolson,"[('Universe Note', 2), ('Candle Inferno', 1), ('Lucent 330S', 2), ('pearTV', 1)]",16100,50.875,-37.8131242,144.9630993,0,16150.875,Spring,True,0.8323,excellent for the price. this is a really nice phone for the money. toshika is almost always spot-on with their products. it's not the latest and greatest processor or camera but my wife loves the size and features.,True
ORD034025,ID2978792697,2019-08-08,Bakers,"[('Alcon 10', 2), ('Universe Note', 1), ('iAssist Line', 2), ('pearTV', 1)]",32110,69.75,-37.8116233,145.0120991,10,28968.75,Winter,False,1.4944,wow this phone is an upgrade from my almost 6 year old note 3...........wow! what an upgrade! if it holds up as long as my note 3 then this will be a testament to olivia. the only con is that i cant replace the battery easily is needed.,True
ORD470839,ID0250479854,2019-08-11,Bakers,"[('Alcon 10', 1), ('Toshika 750', 2)]",17590,68.44,-37.81509060000001,145.0060096,0,17658.44,Winter,False,1.1045,"great product i love this phone, the one thing it lack is infrared everything else is good",True
ORD092492,ID4754200403,2019-10-04,Thompson,"[('pearTV', 2), ('Alcon 10', 1), ('Lucent 330S', 2)]",24030,84.79,-37.8164601,144.9283916,5,22913.29,Spring,False,1.6957,"changed it up! my lg v10 kept loosing battery life, and that was the price i paid when i bought a refurbished phone. i wont make that mistake twice! really happy since finding this a20 universe! still learning what it can do. great price for this kind of technology",True
ORD455630,ID0130043112,2019-09-26,Thompson,"[('Thunder line', 2), ('pearTV', 1), ('Universe Note', 1)]",14120,84.4,-37.80363610000001,144.9322365,15,12086.4,Spring,False,1.6473,good purchase this product came new in the box. i have been a long term alcon user but recently made the switch to this android phone and i am glad i did. great phone that takes amazing photos- the camera is such good quality. product arrived quickly and was as described.,True
ORD264021,ID6231506323,2019-04-05,Nickolson,"[('Lucent 330S', 2), ('Candle Inferno', 1), ('pearTV', 1), ('Olivia x460', 2)]",11650,48.01,-37.8240266,144.9699522,5,11115.51,Autumn,False,0.6057,no carrier the device is not working in usa,False
ORD074553,ID0577396698,2019-09-18,Nickolson,"[('pearTV', 2), ('Toshika 750', 1), ('Alcon 10', 2)]",34840,101.88,-37.8207774,144.981726,25,26231.88,Spring,True,1.0978,five stars i am completely pleased with this phone.,True
ORD069298,ID5002595031,2019-03-19,Thompson,"[('Toshika 750', 1), ('Thunder line', 2), ('Lucent 330S', 2)]",11140,49.09,-37.8125584,144.9525509,5,10632.09,Autumn,False,0.4823,olivia universe note 9 orchid purple huge fail !!! think item was counterfeit !!! never got a signal with different sim cards & then motherboard went out !!! olivia & square trade no help !!! no cell phone purchases @ this point from digico ever again !!! $ 900.00 plus dollars down the drain !!! only name brand carrier again !!!,False
ORD385299,ID0202767927,2019-07-29,Thompson,"[('iAssist Line', 2), ('Candle Inferno', 2), ('Olivia x460', 2), ('pearTV', 2)]",20380,58.14,-37.8049802,144.92496719999997,25,15343.14,Winter,False,2.1241,fragile screen the phone has an amazing battery capacity. but it had software malfunctions as well as a weak screen. i would not recommend it.,False
ORD468985,ID0575384839,2019-10-14,Nickolson,"[('Toshika 750', 2), ('pearTV', 1), ('Alcon 10', 2)]",32850,102.84,-37.8192935,144.9820908,15,28025.34,Spring,True,1.1054,perfect it's good. everything is great,True
ORD388302,ID0377540822,2019-02-03,Thompson,"[('pearTV', 2), ('Thunder line', 1), ('Lucent 330S', 1)]",16030,77.43,-37.8172355,144.95315680000004,5,15305.93,Summer,True,0.7379,"this is decent reader and istream device. lots of bugs and gotchas when trying to use - icons going off screen, random locking, random performance hits while doing the same task. returned. buying an ipad mini 2. the build quality is just not there.",False
ORD305919,ID0298099373,2019-09-24,Bakers,"[('Alcon 10', 1), ('pearTV', 2), ('iAssist Line', 2), ('Candle Inferno', 1)]",26450,86.57,-37.8006641,144.9757176,10,23891.57,Spring,False,2.0062,five stars love this phone. easy to use and light. a bit on the large size.,True
ORD429033,ID0107156000,2019-11-26,Nickolson,"[('Universe Note', 1), ('iAssist Line', 1), ('Candle Inferno', 1), ('Thunder line', 1)]",8285,85.58,-37.83036970000001,144.9881205,15,7127.83,Spring,False,2.0938,love it great gift for my mom,True
ORD396012,ID0767730103,2019-08-11,Nickolson,"[('Olivia x460', 1), ('iAssist Line', 1)]",3450,70.97,-37.8045761,144.9705632,25,2658.47,Winter,False,1.5631,five stars got this for my dad and he really likes it.,True
ORD448320,ID5402876208,2019-01-31,Nickolson,"[('Olivia x460', 2), ('iStream', 2), ('Alcon 10', 1), ('Lucent 330S', 1)]",12930,78.76,-37.82138870000001,144.9779853,25,9776.26,Summer,True,0.8042,"was locked to at&t very disappointed. it was stated the device was gsm unlocked, upon taking it to t-mobile it rejected the sim card. they said is would not work. checked with at&t to find out that it could not be unlocked due to an over due payment. so the phone was not gsm unlocked.",False
ORD080794,ID4884440917,2019-03-11,Thompson,"[('Olivia x460', 2), ('Thunder line', 2), ('iAssist Line', 2), ('Lucent 330S', 2)]",13720,54.36,-37.7997859,144.9348862,25,10344.36,Autumn,False,1.7905,"no bueno one star because it came on time, however after week of usage the phone stopped turning on or was able to charge. no water damages or physical damages. phonr carrier couldn't help because we didn't purchase it through our phone company. ended up buying new phone through our phone company which we should of done in thr first place.",False
ORD383903,ID6167441009,2019-01-20,Thompson,"[('Candle Inferno', 1), ('iStream', 2), ('Thunder line', 2), ('Alcon 10', 1)]",14040,63.22,-37.807154,144.9600704,5,13401.22,Summer,False,1.298,"disappointed never buying an international version again. olivia pay doesn't work which is one of the most important features i was looking forward to, network reception is terrible, calls keep going straight to voicemail. never had that problem before w/ a cheaper phone. not worth the $1,000+ i paid. i wouldn't even pay $600 for the phone.",False
ORD346144,ID0501019041,2019-02-08,Nickolson,"[('Alcon 10', 1), ('Universe Note', 1)]",12400,102.47,-37.8037909,144.9733079,10,11262.47,Summer,True,1.6807,"nice asthetic, great all around phone great phone.. all around.. of course i don't download a lot onto it..but the asthetic is nice, but make sure you purchase a case.. screens are so fragile, and it costs more to fix the screen sometimes than the phone itself~!",True
ORD088051,ID0419481484,2019-02-09,Bakers,"[('Olivia x460', 1), ('Lucent 330S', 1)]",2455,75.49,-37.8179488,144.9905544,0,2530.49,Summer,False,0.9762,long battery life really nice phone. the battery lasts a long time,True
ORD311773,ID1492145801,2019-04-14,Thompson,"[('Lucent 330S', 2), ('iStream', 2), ('iAssist Line', 1), ('Candle Inferno', 1)]",5415,49.41,-37.8125749,144.95113669999995,25,4110.66,Autumn,False,0.3579,"tablet was brought for my fiance for christmas. i had to return it because it kept freezing up. also, it didnt get clash of the clans game..",False
ORD486563,ID0589708331,2019-02-15,Thompson,"[('Universe Note', 2), ('Lucent 330S', 2), ('Candle Inferno', 2)]",10220,114.345,-37.82086500000001,144.9548784,0,10334.345,Summer,False,1.1416,bought this for my father who would have trouble using a computer. he's picking up on it very quickly. it keeps him entertained. good reliable device.,True
ORD015302,ID3114182130,2019-03-24,Nickolson,"[('Universe Note', 2), ('Lucent 330S', 2), ('Alcon 10', 1)]",18310,78.37,-37.8109799,144.96377990000005,25,13810.87,Autumn,True,0.988,"great phone, great price. great phone. bought it used from this company and i'm very happy with it. it wad exactly they way they described it. would buy from them again if needed.",True
ORD267571,ID6167489417,2019-08-24,Thompson,"[('Thunder line', 2), ('iStream', 2), ('pearTV', 1)]",10970,63.59,-37.810072,144.9576654,10,9936.59,Winter,True,0.9758,don't buy it the cellphone just stopped working one day. it worked two months. worst invest ever.,False
ORD418841,ID0287630666,2019-03-11,Thompson,"[('Candle Inferno', 1), ('iStream', 2), ('Universe Note', 2), ('Thunder line', 2)]",11990,121.005,-37.8038209,144.94737450000005,15,10312.505,Autumn,True,0.9858,great phone just annoying advertisements wife loves it just has advertisements that get annoying fast have to exit adds before answering calls 80% of the time,True
ORD371220,ID0248236928,2019-12-07,Bakers,"[('Olivia x460', 2), ('Lucent 330S', 1)]",3680,83.47,-37.8260228,145.0010929,0,3763.47,Summer,False,1.857,"it is perfect, it is perfect,",True
ORD064145,ID2183271187,2019-05-14,Nickolson,"[('Olivia x460', 1), ('iStream', 2), ('Universe Note', 2)]",8425,79.2,-37.8067051,144.9627941,5,8082.95,Autumn,True,1.4508,great smartphone. perfect great smartphone. perfect. just like new at a great price. no blemishes. excellent seller description of smartphone. 64 gb verizon model.,True
ORD170092,ID1449431597,2019-07-07,Nickolson,"[('Lucent 330S', 1), ('Universe Note', 1), ('Candle Inferno', 1), ('Thunder line', 1)]",7290,78.55,-37.8134021,144.9739325,10,6639.55,Winter,True,0.6947,great battery life best phone ever,True
ORD035685,ID0589747750,2019-01-20,Thompson,"[('Thunder line', 2), ('pearTV', 2), ('Alcon 10', 1), ('Olivia x460', 1)]",27155,60.9,-37.8213485,144.95376130000002,15,23142.65,Summer,False,1.1309,"received 64gb instead of 256gb paid for a 256gb gold xsmax, but received a 64gb gray xs max. sigh",False
ORD347864,ID0847530926,2019-04-04,Nickolson,"[('Thunder line', 1), ('Toshika 750', 1), ('Alcon 10', 2), ('pearTV', 1)]",30710,63.6,-37.8223696,144.96770969999997,25,23096.1,Autumn,True,0.4503,"decent cheap phone camera slow, in screen fingerprint reader slow, will not play fortnite.. no compatible gpu's. does not work fully on at&t as seller describes - you only get 3g and edge service. returning...",False
ORD329732,ID1986325609,2019-12-19,Bakers,"[('Toshika 750', 1), ('Universe Note', 2)]",11220,37.66,-37.8054396,144.9988492,10,10135.66,Summer,True,0.5987,"cuts out terribly when calling since the 1st week i had this phone everyone who called me, constantly told me that they only hear 1 out of 3 words i was saying due to the phone cutting out. i would never ever buy a refurbished phone again!",False
ORD282944,ID0579512456,2019-02-18,Thompson,"[('Alcon 10', 1), ('Toshika 750', 1), ('Universe Note', 2), ('Candle Inferno', 2)]",21030,49.55,-37.81392,144.9481385,25,15822.05,Summer,False,0.1677,one star trash,False
ORD387462,ID0060095777,2019-09-20,Nickolson,"[('Thunder line', 1), ('Universe Note', 2), ('Lucent 330S', 2), ('Alcon 10', 1)]",20490,77.39,-37.81550170000001,144.97735269999995,5,19542.89,Spring,False,0.7676,decent tablet. access to candle and pretty much all your google apps.,True
ORD100545,ID0331164165,2019-12-23,Nickolson,"[('pearTV', 1), ('Alcon 10', 1)]",15260,108.32,-37.7997185,144.97096100000005,0,15368.32,Summer,True,2.1049,easy to order. like it,True
ORD427881,ID0247417839,2019-02-02,Nickolson,"[('Thunder line', 2), ('Olivia x460', 1), ('iStream', 2)]",5885,25.81,-37.8181208,144.9693491,5,5616.56,Summer,False,0.0557,no access to the internet.........won't recommend!,False
ORD056248,ID0163634513,2019-05-26,Thompson,"[('Candle Inferno', 1), ('Thunder line', 1), ('Lucent 330S', 1)]",3840,82.34,-37.82420020000001,144.9526999,25,2962.34,Autumn,True,1.3754,"no straight talk love the phone, is what i wanted, a simple durable flip phone to talk on when i am out in the field. will not work on straight talk or anyone other than verizon!!!!",True
ORD486689,ID0635560527,2019-08-04,Thompson,"[('Alcon 10', 2), ('Lucent 330S', 2), ('Olivia x460', 1), ('Toshika 750', 2)]",30225,77.46,-37.811788,144.9567909,5,28791.21,Winter,True,0.8606,we purchased this as a gift. researching and word of mouth led us to purchase this one. very user friendly.,True
ORD148622,ID6167359500,2019-07-28,Nickolson,"[('iAssist Line', 1), ('pearTV', 2)]",14845,79.3,-37.8091394,144.9731543,25,11213.05,Winter,True,1.0992,great look! works great!,True
ORD496675,ID0664380200,2019-05-25,Nickolson,"[('Universe Note', 2), ('Toshika 750', 1), ('Alcon 10', 2)]",29120,61.89,-37.81957020000001,144.9692636,10,26269.89,Autumn,False,0.1115,arrived sooner than expected definitely is great,True
ORD453287,ID0440051918,2019-10-04,Bakers,"[('Thunder line', 1), ('Candle Inferno', 1), ('Olivia x460', 1)]",3835,65.36,-37.8213317,144.99345119999995,25,2941.61,Spring,False,1.2715,not the best won't recommend to others or buy again. the phones screen doesn't work all that well.,False
ORD238341,ID6167417893,2019-12-04,Thompson,"[('Thunder line', 2), ('iStream', 1)]",4510,95.4,-37.8167573,144.95427709999996,5,4379.9,Summer,True,0.7801,great features for the price this is my third lucent g. love the blush pink metallic color. my only problem with these phones is with the battery. lasts about two years then overheats and won't hold charge. not a big enough issue for me. the price and features negates this one flaw,True
ORD021769,ID0814520157,2019-04-19,Thompson,"[('Alcon 10', 2), ('Thunder line', 2), ('pearTV', 2), ('iAssist Line', 1)]",37105,51.15,-37.811521,144.957735,25,27879.9,Autumn,False,0.9467,"phone is hacked! so the phone continues to be hacked everyday since i got it. weve hard reset the phone, been to the cell phone place, nothing works! will not be purchasing again. i would like to have my money back",False
ORD105224,ID4807112217,2019-09-19,Thompson,"[('iAssist Line', 1), ('Olivia x460', 2), ('Toshika 750', 1), ('iStream', 2)]",9295,82.89,-37.80058920000001,144.93735569999996,0,9377.89,Spring,False,1.5935,sweet awsome thank you works like new .,True
ORD467963,ID0781005197,2019-06-25,Thompson,"[('Universe Note', 1), ('Lucent 330S', 1), ('Olivia x460', 2)]",7130,78.51,-37.8054246,144.9521368,5,6852.01,Winter,True,0.9218,great phone bought this for my daughter and she loves it.,True
ORD334977,ID4716795476,2019-12-18,Thompson,"[('Universe Note', 1), ('Candle Inferno', 2), ('Olivia x460', 1)]",5535,76.9,-37.8192011,144.9530605,0,5611.9,Summer,True,0.8976,"vendedor no confiable no cumpli贸 en nada,",False
ORD258078,ID0814520157,2019-02-04,Thompson,"[('Lucent 330S', 2), ('Candle Inferno', 1), ('Olivia x460', 1)]",4115,75.15,-37.811521,144.957735,5,3984.4,Summer,False,0.9467,five stars the phone came fast and wprks great,True
ORD369364,ID1462398968,2019-08-05,Bakers,"[('Lucent 330S', 2), ('Thunder line', 1), ('Universe Note', 1)]",8090,40.865,-37.8201747,145.01397980000004,5,7726.365,Winter,True,2.0005,"a good option for a new phone excelent phone, make gread pictures too.",True
ORD119252,ID0579994871,2019-06-09,Thompson,"[('pearTV', 1), ('iStream', 2)]",6610,68.59,-37.8031529,144.93673049999995,5,6348.09,Winter,False,1.3964,like new the phone works perfectly fine.,True
ORD253509,ID1982493378,2019-10-12,Thompson,"[('Olivia x460', 1), ('pearTV', 1), ('Lucent 330S', 2), ('Toshika 750', 1)]",14315,87.83,-37.8011223,144.94637769999997,0,14402.83,Spring,True,1.2872,"terrible battery battery is terrible, not even even good for 4 hours",False
ORD336732,ID5957906915,2019-09-05,Nickolson,"[('Candle Inferno', 1), ('Lucent 330S', 1)]",1660,109.86,-37.8041039,144.9738665,10,1603.86,Spring,True,1.6572,it was very easy to set up and my family love its!,True
ORD088815,ID0277517041,2019-01-12,Thompson,"[('Universe Note', 2), ('iAssist Line', 2)]",11350,95.24,-37.8062827,144.9584448,10,10310.24,Summer,True,1.2276,amazing conforme,True
ORD207612,ID0589402311,2019-02-21,Nickolson,"[('Thunder line', 2), ('Candle Inferno', 2), ('Universe Note', 1)]",8670,94.82,-37.810034,144.9697155,0,8764.82,Summer,True,0.9531,"best value in phablets! love this phone, perfect size and with a waterproof case it may be a way better deal than the s7 edge.",True
ORD321281,ID6280295068,2019-10-12,Bakers,"[('Lucent 330S', 2), ('Toshika 750', 1), ('iAssist Line', 1)]",9005,107.44,-37.8231907,144.98883500000005,5,8662.19,Spring,True,1.5728,great phone but the screen scratches easily the phone works and runs great but within a week the screen was very scratched up,True
ORD364057,ID2277912680,2019-03-04,Thompson,"[('Toshika 750', 1), ('Lucent 330S', 1), ('Thunder line', 1), ('pearTV', 2)]",20350,66.32,-37.8225599,144.9380572,25,15328.82,Autumn,False,1.3562,battery life sucks but i knew that going in battery life sucks but i knew that going in. pictures are amazing and the phone rings like a laptop.,True
ORD448138,ID2191736650,2019-06-05,Nickolson,"[('pearTV', 1), ('Toshika 750', 1)]",10630,67.81,-37.8225205,144.9555842,0,10697.81,Winter,False,1.3036,five stars work great,True
ORD349491,ID6167285769,2019-04-15,Nickolson,"[('iStream', 2), ('iAssist Line', 2)]",4750,78.57,-37.810362700000006,144.9607907,5,4591.07,Autumn,True,1.1972,great phone great phone at a great price. was new in box unlike some others claiming to be new but are refurbished. buy from cell-sell and you wont be disappointed.,True
ORD020503,ID0107167010,2019-04-05,Nickolson,"[('Alcon 10', 1), ('Olivia x460', 2), ('Candle Inferno', 1)]",11830,64.65,-37.8203816,144.9653528,25,8937.15,Autumn,False,0.4193,"great product, great price excellent phone, as described, and it was a great price!! shipped quickly. highly reccommend this seller.",True
ORD039175,ID0580158980,2019-02-06,Thompson,"[('iAssist Line', 2), ('Olivia x460', 2), ('pearTV', 2), ('Lucent 330S', 2)]",21980,81.71,-37.7996716,144.93703440000004,25,16566.71,Summer,False,1.6952,"nice and compact beautiful design, nice and compact.",True
ORD167171,ID4633770164,2019-11-10,Thompson,"[('Toshika 750', 1), ('Olivia x460', 2), ('Lucent 330S', 2), ('Thunder line', 1)]",11410,74.13,-37.8070811,144.94490009999996,15,9772.63,Spring,False,0.6511,"good value.. bought this for a gift, works well. condition is like new",True
ORD406905,ID0282825740,2019-02-24,Thompson,"[('Lucent 330S', 2), ('Alcon 10', 2), ('Olivia x460', 2)]",22810,96.06,-37.8023329,144.9528168,5,21765.56,Summer,True,1.2572,five stars very good!,True
ORD109100,ID0702452232,2019-12-19,Thompson,"[('Alcon 10', 1), ('Thunder line', 2), ('Toshika 750', 1), ('iStream', 1)]",17780,78.65,-37.8052077,144.9418407,25,13413.65,Summer,True,0.9498,issues connecting to wifi it will not connect to our wifi. i've been reading in forums and a lot of people are having this problem. i've checked router settings and nothing has worked.,False
ORD303004,ID0579986298,2019-01-07,Thompson,"[('pearTV', 2), ('Thunder line', 2), ('iStream', 2), ('Lucent 330S', 2)]",19740,65.86,-37.8123341,144.9468664,15,16844.86,Summer,False,0.0417,five stars like it so much i bought two,True
ORD072833,ID4716795629,2019-04-07,Thompson,"[('Universe Note', 2), ('Toshika 750', 1), ('iAssist Line', 2), ('iStream', 2)]",15970,64.41,-37.8188014,144.9531468,10,14437.41,Autumn,False,0.8666,very satisfied better than what i expected works perfect.,True
ORD408622,ID0775945931,2019-11-28,Thompson,"[('Lucent 330S', 2), ('Universe Note', 2)]",9360,104.8,-37.8054993,144.9591122,15,8060.8,Spring,True,1.3265,"great purchase so far this is well worth buying. looks brand new, everything functions properly. glad i took a chance on a refurbished phone.",True
ORD462223,ID0774566816,2019-08-01,Thompson,"[('Lucent 330S', 1), ('Universe Note', 1)]",4680,51.82,-37.805888,144.9561775,25,3561.82,Winter,False,1.101,stop working in a few days --- stay away the screen blacked out in a few days. i have returned it as it was defective. the company refused and asked us to send a pre-paid postage to them so we could pay for the shipment for their defective phone. we are still working with the company and would keep you informed.,False
ORD020336,ID0767729209,2019-08-27,Thompson,"[('Toshika 750', 2), ('iStream', 2)]",8940,47.95,-37.807405,144.9438853,0,8987.95,Winter,False,0.6498,phone not refurbished battery was defective. item returned.,False
ORD214172,ID0282825823,2019-11-23,Thompson,"[('Universe Note', 1), ('Olivia x460', 1), ('Thunder line', 2)]",9035,66.95,-37.8026232,144.9486575,5,8650.2,Spring,False,1.1274,"touch screem stop working i read some reviews before but dind't pay attention. got it on june..., touch screen stop working as i saw it on the reviewe. i ignored the reviews and i regret",False
ORD049021,ID6206936510,2019-07-17,Thompson,"[('Universe Note', 2), ('pearTV', 1)]",13210,115.08,-37.80589620000001,144.9443458,15,11343.58,Winter,True,0.7915,love my mine! works great with gold! and i have all my best movies!,True
ORD344469,ID4754200389,2019-11-17,Thompson,"[('Candle Inferno', 2), ('iStream', 1), ('Alcon 10', 1), ('Toshika 750', 2)]",18600,92.01,-37.8161952,144.9287407,25,14042.01,Spring,True,1.6588,"no 32 gb memory card cell phone is great, but description is misleading. did not come with 32 gb memory card as description states. contacted company with this concert, but no response back.",False
ORD434870,ID6167236689,2019-08-18,Nickolson,"[('Toshika 750', 2), ('Universe Note', 2), ('iStream', 2)]",15840,78.18,-37.81166939999999,144.9647884,25,11958.18,Winter,True,0.8774,"great device, my grandkids had a ball setting it up for me!",True
ORD465869,ID6167236681,2019-01-29,Nickolson,"[('iStream', 1), ('Lucent 330S', 2)]",2610,94.0,-37.8107183,144.9680741,25,2051.5,Summer,True,0.8864,phone came perfect and right on time phone came perfect and right on time. the only thing that bothers me is if you don't have a verizon sim it pops up on my window and i can't access my voice-mail. but all in all good product for the amount i paid,True
ORD026236,ID0709707024,2019-02-15,Thompson,"[('Toshika 750', 2), ('Candle Inferno', 1)]",9070,69.2,-37.8127283,144.9425214,0,9139.2,Summer,False,0.4,it's been over a year now & still holding up! it's been over a year now & still holding up! highly recommend! we never pay those insane store cell phone prices...always find the refurbished!!,True
ORD433213,ID0255058363,2019-08-12,Nickolson,"[('iStream', 1), ('iAssist Line', 1), ('pearTV', 2), ('Olivia x460', 2)]",17445,77.4,-37.812221,144.9712955,15,14905.65,Winter,True,0.7259,this is great item and just added audible books which makes it even better. thank you!,True
ORD288437,ID0746341027,2019-12-29,Bakers,"[('Alcon 10', 2), ('iStream', 2), ('Olivia x460', 1)]",19425,74.56,-37.8032039,144.99634519999995,5,18528.31,Summer,False,0.7624,amazing paroduct,True
ORD214480,ID5922126223,2019-04-25,Nickolson,"[('Alcon 10', 2), ('Thunder line', 1)]",20080,61.09,-37.8185087,144.9714423,5,19137.09,Autumn,True,0.1666,broke after a week of using the screen went blank after one week of using. nice design phone.,False
ORD385235,ID0332549398,2019-11-06,Thompson,"[('pearTV', 2), ('Thunder line', 2), ('Candle Inferno', 1)]",17410,60.64,-37.80774870000001,144.9479858,5,16600.14,Spring,False,0.5541,"stopped working got the phone for my son, never dropped it but stopped working around 30 days. the phone won't start at all. we most likely just got a lemon, but didn't want to take another chance with it again",False
ORD325428,ID6245731037,2019-08-07,Nickolson,"[('Lucent 330S', 1), ('Olivia x460', 2), ('Alcon 10', 2)]",21580,67.18,-37.8107586,144.97710859999995,15,18410.18,Winter,False,1.0967,funciona para venezuela mi preocupaci贸n era si funcionar铆a en venezuela y s铆 funciona. tiene mejor relaci贸n calidad-precio que otros equipos. lo compr茅 para regalar a mi mam谩 que lo necesitaba y le ha gustado mucho.,True
ORD102684,ID2176972931,2019-04-16,Bakers,"[('Alcon 10', 2), ('Candle Inferno', 1)]",18330,82.91,-37.8042708,145.01116059999995,15,15663.41,Autumn,True,1.5391,"everything worked great, no issues thus far and even though they ... everything worked great, no issues thus far and even though they advertise some dings my phone was in almost new condition. thank you",True
ORD395849,ID2291073983,2019-12-09,Thompson,"[('Toshika 750', 2), ('pearTV', 1), ('Olivia x460', 2)]",17400,75.62,-37.8106585,144.95983700000005,15,14865.62,Summer,False,1.1451,four stars great price! the screen was a little messed up but it's fine,True
ORD081910,ID1404216321,2019-10-23,Bakers,"[('Alcon 10', 1), ('Olivia x460', 2)]",11400,103.79,-37.8009482,144.9887123,10,10363.79,Spring,True,1.159,i love it looks like new,True
ORD478418,ID1426013259,2019-05-27,Nickolson,"[('iStream', 1), ('iAssist Line', 1), ('pearTV', 2)]",14995,62.98,-37.8200687,144.9651511,10,13558.48,Autumn,False,0.4202,"nice phone really great phone, i'm in love",True
ORD208281,ID1449431244,2019-06-29,Nickolson,"[('Candle Inferno', 2), ('Lucent 330S', 2)]",3320,61.23,-37.8152976,144.97476650000004,5,3215.23,Winter,True,0.5874,"bad choice very unhappy about the edge, miss touch all the time cause when you hold it, you are touching the edge which is super sensitive. the camera lens got broken by itself. wtf. now it's also having issue charging. this is my first also last olivia phone.",False
ORD283825,ID0299026739,2019-08-08,Bakers,"[('Universe Note', 1), ('Olivia x460', 2), ('Thunder line', 2), ('Lucent 330S', 2)]",12720,55.88,-37.8017477,145.01116090000005,25,9595.88,Winter,False,1.675,junk junk,False
ORD095301,ID2935371904,2019-09-03,Bakers,"[('pearTV', 2), ('Alcon 10', 2)]",30520,82.04,-37.8248764,144.99166169999995,5,29076.04,Spring,False,1.6859,"i have two. one in my computer room and the other that i move around out on the deck. not great for watching video, but it can be done. with the added sound you don't get from the thunder line, it is perfect for the location i have it in. add whole house music, and you have just arrived in nervana.",True
ORD106430,ID3218226980,2019-05-12,Thompson,"[('Candle Inferno', 2), ('pearTV', 2), ('Olivia x460', 2)]",15930,64.39,-37.8073374,144.9445753,5,15197.89,Autumn,False,0.6332,"everything is good, the camera is just messing everything is good , the camera is just messing up",True
ORD369082,ID4733654601,2019-04-29,Thompson,"[('iStream', 1), ('iAssist Line', 1), ('Universe Note', 2)]",9275,66.13,-37.80452329999999,144.94878630000005,0,9341.13,Autumn,False,0.9197,great phone. this is a really good phone. better than any other phone you are considering. unless the pixel 3 has come out.,True
ORD242196,ID0589533833,2019-09-17,Thompson,"[('Lucent 330S', 1), ('Toshika 750', 1)]",5550,89.63,-37.8217058,144.9552104,5,5362.13,Spring,True,1.2343,one star it didn't not work i had to send it back,False
ORD212100,ID1217532720,2019-04-16,Thompson,"[('Candle Inferno', 1), ('pearTV', 1), ('Toshika 750', 2)]",15380,64.44,-37.8181279,144.9485845,10,13906.44,Autumn,True,0.6217,"the cell phone came with no charger, no headphones ... the cell phone came with no charger, no headphones. only my cell phone came. i hope to solve this.",False
ORD019255,ID0702375147,2019-01-07,Thompson,"[('Candle Inferno', 2), ('Lucent 330S', 1)]",2090,92.89,-37.8071669,144.9425444,5,2078.39,Summer,True,0.7308," upgraded to the zx from a z1s that i have loved for years, love the design. fits perfect in my hand. amazing quality of photos and videos, have loved toshika phones as they're a great company to resolve any product issues or concerns... unlike their competitors.",True
ORD271614,ID4735836854,2019-05-27,Thompson,"[('Alcon 10', 1), ('Candle Inferno', 1), ('iAssist Line', 2)]",13830,64.49,-37.8036664,144.94986219999996,0,13894.49,Autumn,False,1.0323,"its a secure phone and with added thumb print recognition. the phone i bought was even more than i had expected,clean,no scratch and was working from get go,have no complain used it for paying bills when shopping by using the olivia pay great phone,easy to used would recommend it to any one.",True
ORD275701,ID1224869065,2019-09-28,Thompson,"[('iAssist Line', 2), ('Olivia x460', 1), ('Thunder line', 1)]",7855,98.38,-37.8136729,144.9410854,5,7560.63,Spring,True,0.5378,great product received! as advertised. great product received. thanks!,True
ORD261710,ID2183271188,2019-07-02,Nickolson,"[('Candle Inferno', 2), ('pearTV', 2), ('Alcon 10', 2), ('Thunder line', 2)]",35740,79.39,-37.8067215,144.9629607,15,30458.39,Winter,True,1.4432,"great phone really an amazing phone, i only changed it when after 2 years of intensive use, the battery life began to shorten a lot, only 4 or 5hs of use, but never had any hardware problem. amazing camera",True
ORD213524,ID0664380203,2019-10-13,Nickolson,"[('Alcon 10', 1), ('iStream', 2)]",9250,107.69999999999999,-37.8196174,144.9687616,25,7045.2,Spring,False,0.1333,can't think of anything that she doesn't like about it my daughter loves the google pixel xl. she is thrilled that it holds a charge as long as it does. she can get through a whole day of school without it losing it's charge. can't think of anything that she doesn't like about it.,True
ORD049910,ID3106293369,2019-01-25,Thompson,"[('Alcon 10', 1), ('Lucent 330S', 1)]",10180,99.0,-37.8067661,144.9322936,10,9261.0,Summer,True,1.4563,my kids love it. battery life is longer than others.,True
ORD290732,ID0588198718,2019-03-17,Nickolson,"[('iStream', 2), ('Toshika 750', 2), ('Olivia x460', 2)]",11390,63.08,-37.8121538,144.9739321,0,11453.08,Autumn,False,0.814,this is perfect my kids to do their school work on and have fun as well.,True
ORD440364,ID3327893029,2019-08-15,Thompson,"[('Lucent 330S', 1), ('iStream', 2), ('iAssist Line', 1)]",3755,78.35,-37.8065465,144.9595075,5,3645.6,Winter,True,1.2891,five stars great phone for the price.,True
ORD491232,ID0026034521,2019-12-20,Thompson,"[('Olivia x460', 1), ('Candle Inferno', 2), ('Alcon 10', 2)]",19985,94.43,-37.8136472,144.95732009999998,0,20079.43,Summer,True,0.908,love the phone!!!!! the phone was exactly what i expected and more. i really am happy i got this phone. it is a nice phone and it really exceded my expectations. i highly recommend this phone. i ordered a refurbished one and it is like it is brand new.,True
ORD056880,ID4095230643,2019-12-20,Bakers,"[('iStream', 2), ('Toshika 750', 1), ('Olivia x460', 1)]",5845,88.24,-37.810386,144.992749,10,5348.74,Summer,True,0.2226,good seller works as described,True
ORD219137,ID0137182984,2019-09-08,Nickolson,"[('Candle Inferno', 1), ('Toshika 750', 2), ('Universe Note', 1), ('pearTV', 1)]",18830,107.86,-37.8035969,144.96651169999996,10,17054.86,Spring,True,1.6908,"five stars great price, excellent performance, easy to set up and use. compatible with android auto. works wonderfully!",True
ORD323424,ID4297530199,2019-12-08,Bakers,"[('iStream', 2), ('Universe Note', 2), ('iAssist Line', 1)]",9425,63.03,-37.8017491,144.98377480000005,25,7131.78,Summer,False,1.3632,one star the product did not work at all. i was cheated.,False
ORD026048,ID0992113568,2019-03-08,Nickolson,"[('Olivia x460', 2), ('iStream', 2)]",2750,77.45,-37.8209249,144.9681901,15,2414.95,Autumn,True,0.2856,great great,True
ORD184965,ID0103301632,2019-02-10,Nickolson,"[('Candle Inferno', 1), ('Universe Note', 2), ('iAssist Line', 1)]",9555,78.21,-37.8160743,144.96186719999997,15,8199.96,Summer,True,0.7316,estafadores un desastre. compre un olivia s9 y al abrir la caja hab铆a un blu. no lo recomiendo.,False
ORD476116,ID1964021903,2019-12-07,Nickolson,"[('pearTV', 2), ('Candle Inferno', 2)]",13480,88.09,-37.81841970000001,144.96688899999995,15,11546.09,Summer,True,0.2349,durable and cheap and good performance good product,True
ORD304978,ID5922126189,2019-07-05,Nickolson,"[('Universe Note', 1), ('Lucent 330S', 2), ('Thunder line', 2)]",10270,56.3,-37.818374,144.97108799999995,25,7758.8,Winter,True,0.1374,a rip off! it was supposed to be e5 play..this is what i received :(,False
ORD170520,ID3238550842,2019-05-30,Bakers,"[('iAssist Line', 1), ('Alcon 10', 2)]",20125,54.88,-37.8162593,145.01473149999995,10,18167.38,Autumn,False,1.8511,"two stars bad battery, hanging problems.",False
ORD144288,ID0054552181,2019-02-15,Nickolson,"[('Alcon 10', 1), ('Universe Note', 1)]",12400,98.08,-37.8186685,144.98310469999996,15,10638.08,Summer,True,1.1919,"ive been waiting for gold day to purchase an thunder plus and now, im enjoying learning what iassist can do. with a new sonos one and an thunder line, i have the makings of a really nice and well-integrated smart home. love it!",True
ORD080047,ID0294620834,2019-07-18,Nickolson,"[('Thunder line', 2), ('iStream', 1)]",4510,76.86,-37.81953220000001,144.9617304,15,3910.36,Winter,True,0.6956,good phone for the price its a good phone can handle a lot of apps without slowing down or crashing however do not like how fast it burns through battery,True
ORD480656,ID6167266594,2019-02-03,Nickolson,"[('Toshika 750', 1), ('Candle Inferno', 1), ('iStream', 1), ('Universe Note', 2)]",11800,96.45,-37.8095201,144.9639661,0,11896.45,Summer,True,1.1233,"love this phone great phone, long battery life, simple to use",True
ORD399004,ID1449266767,2019-08-05,Bakers,"[('Lucent 330S', 2), ('Alcon 10', 2), ('Universe Note', 1)]",23810,64.72,-37.8167185,144.9844199,10,21493.72,Winter,True,1.21,"bad connections. i will put some of this in ... not impressed. i have to charge this thing at least twice a day, constantly dropping calls, bad connections. i will put some of this in the carrier, but still... very expensive mistake.",False
ORD346844,ID2180785597,2019-08-03,Nickolson,"[('Alcon 10', 1), ('pearTV', 2), ('Lucent 330S', 2), ('Toshika 750', 2)]",32670,62.31,-37.8169685,144.961547,10,29465.31,Winter,True,0.7268,phone don't work screen phone don't work and got dark screen,False
ORD116003,ID0207141363,2019-10-01,Thompson,"[('Alcon 10', 1), ('Candle Inferno', 1), ('Universe Note', 1)]",12830,107.09,-37.82404520000001,144.9538112,10,11654.09,Spring,True,1.3979,lucent z is well worth the price still getting use to this amazing phone... fun in your hands and easy to use.,True
ORD492127,ID0026034577,2019-10-29,Thompson,"[('Candle Inferno', 2), ('Alcon 10', 2), ('pearTV', 1)]",25070,76.0,-37.806775,144.9513141,0,25146.0,Spring,False,0.7553,... at first but after replacing the battery it works great!! had some issues at first but after replacing the battery it works great!!!,True
ORD490163,ID2698607298,2019-04-07,Nickolson,"[('iStream', 1), ('Olivia x460', 2), ('Candle Inferno', 2), ('Universe Note', 2)]",10360,50.84,-37.8234102,144.97828969999995,5,9892.84,Autumn,False,0.9369,"dont buy refurbished this phone lasted 6 months and the processor died on it. luckily for the company, its out of warranty.",False
ORD361160,ID0266271570,2019-12-24,Nickolson,"[('Alcon 10', 2), ('iAssist Line', 2), ('iStream', 1), ('Thunder line', 1)]",24680,76.26,-37.8241825,144.980334,0,24756.26,Summer,False,1.134,"nearly perfect 6s received a pristine alcon 6s and was surprised that the screen and body appeared brand new. i wouldve preferred that it had a new battery, as it only had a capacity of 81%, but for the price im very satisfied.",True
ORD400228,ID0650272311,2019-11-18,Bakers,"[('Lucent 330S', 2), ('Candle Inferno', 1), ('iStream', 1), ('Olivia x460', 1)]",4265,106.05,-37.81149310000001,144.9813197,10,3944.55,Spring,True,1.2348,"its a great phone, but the battery just doesn't last as ... its a great phone, but the battery just doesn't last as long as it should. sometimes it will last for almost a day and sometimes not even an entire day. i like it but i would also like the batter to last longer.",True
ORD286009,ID4544002874,2019-09-13,Nickolson,"[('Candle Inferno', 1), ('iAssist Line', 1), ('Thunder line', 2)]",7015,37.92,-37.8108968,144.9668054,5,6702.17,Spring,False,0.8903,reliable budget smart phone i used this phone for about a month while my other phone was being repaired,True
ORD349934,ID0588197262,2019-09-21,Nickolson,"[('Olivia x460', 2), ('Thunder line', 1)]",4630,153.345,-37.8121189,144.97387719999998,10,4320.345,Spring,True,0.8151,the description of the item was perfect! everything was what i expected! the description of the item was perfect!,True
ORD247428,ID0245533703,2019-11-02,Nickolson,"[('Alcon 10', 1), ('iAssist Line', 2), ('Candle Inferno', 2)]",14260,99.39,-37.8121555,144.966445,25,10794.39,Spring,True,0.7671,"five stars great price, good product, shipped no problem",True
ORD079267,ID0444806533,2019-08-06,Thompson,"[('iAssist Line', 2), ('Olivia x460', 1), ('Toshika 750', 2)]",14315,39.53,-37.8034599,144.9541489,25,10775.78,Winter,True,1.1998,great product great product,True
ORD187196,ID0248266988,2019-05-10,Bakers,"[('iAssist Line', 1), ('iStream', 2), ('Thunder line', 1)]",4705,70.88,-37.8282054,144.9906148,15,4070.13,Autumn,False,2.0673,"good cellphone, but no free akg headphones. the seller advertised free headphones. not true! no akg headphones!",True
ORD455201,ID1713460557,2019-01-04,Nickolson,"[('Alcon 10', 2), ('Toshika 750', 1), ('Candle Inferno', 1), ('iAssist Line', 1)]",24875,77.27,-37.8077167,144.9710681,10,22464.77,Summer,False,1.2183,"nice product great phone, good amount of memory storage, looks clean but the battery is a little small but just leave it on stamina mode and it runs all day and it doesn't effect the performance too much.",True
ORD089563,ID1725216680,2019-10-23,Thompson,"[('Alcon 10', 1), ('Universe Note', 1)]",12400,106.69,-37.8042876,144.9602094,0,12506.69,Spring,True,1.4856,"excellent phone as described. it's an excellent phone, beautiful color, i liked a lot.",True
ORD082746,ID0634775706,2019-10-17,Thompson,"[('iStream', 1), ('Universe Note', 1)]",3600,103.61,-37.8153198,144.9365331,0,3703.61,Spring,True,0.9722,"great phone i love it great phone , fantastic price , works great with tmobile. i love digico the best customer service in the world thanks",True
ORD157018,ID6122497849,2019-02-18,Bakers,"[('pearTV', 2), ('iAssist Line', 2), ('Olivia x460', 1)]",18295,95.52,-37.8024316,145.0033639,5,17475.77,Summer,True,1.1048,five stars enjoy the size,True
ORD358368,ID1277988777,2019-02-03,Bakers,"[('Universe Note', 2), ('Thunder line', 1), ('iStream', 2), ('Toshika 750', 2)]",18020,64.79,-37.8132128,145.0108971,25,13579.79,Summer,False,1.4234,terrible! i would like a refund. product was not as described. already damaged. obviously used!!! terrible!!!,False
ORD009194,ID0579999364,2019-10-02,Thompson,"[('pearTV', 2), ('Thunder line', 1)]",14800,67.7,-37.8062519,144.93380269999997,10,13387.7,Spring,False,1.3683,one star so the phone is broke,False
ORD364293,ID1479928044,2019-06-13,Nickolson,"[('Alcon 10', 2), ('Olivia x460', 2), ('Thunder line', 1), ('pearTV', 1)]",28840,79.67,-37.82029050000001,144.9576071,5,27477.67,Winter,True,1.0671,"five stars very good, impresive",True
ORD141181,ID2696446375,2019-01-25,Bakers,"[('iStream', 1), ('Thunder line', 1), ('Toshika 750', 2)]",10970,74.26,-37.8117628,144.985371,0,11044.26,Summer,False,0.8892,"its ok, no gorilla glass breaks easy it's an ok phone, the display lite keeps going dark and i have to turn it up all the time. dropped it and screen broke, had a lucentrola droid dropped a million times never cracked it had gorilla glass, this sure doesnt",True
ORD094596,ID2583201102,2019-11-13,Bakers,"[('iStream', 1), ('Lucent 330S', 1), ('Olivia x460', 1), ('Toshika 750', 1)]",6925,73.2,-37.8100283,144.99069730000005,15,5959.45,Spring,False,0.3988,"working great this far.  can't tell it's not new.  will edit for longevity in a year, that's the real test.",True
ORD057776,ID2187980362,2019-04-23,Nickolson,"[('iStream', 2), ('pearTV', 2), ('Alcon 10', 2)]",30820,65.34,-37.81350910000001,144.9656542,10,27803.34,Autumn,False,0.6618,the phone is great. the only bad thing is i can't enter ... the phone is great. the only bad thing is i can't enter a micro sd card for extra space because i love my music.,True
ORD392527,ID0577456440,2019-10-03,Bakers,"[('Candle Inferno', 1), ('iStream', 2)]",730,82.45,-37.8231459,144.9885529,25,629.95,Spring,False,1.5772,five stars nice,True
ORD185140,ID1404219800,2019-12-23,Bakers,"[('iStream', 1), ('Thunder line', 2), ('Universe Note', 2)]",11410,74.77,-37.802419,144.99178,10,10343.77,Summer,False,0.8964,i love the phone the phone is amazing,True
ORD105877,ID4313862243,2019-08-08,Bakers,"[('Thunder line', 2), ('iAssist Line', 1), ('Alcon 10', 1)]",15535,76.9,-37.8181423,144.99125990000005,25,11728.15,Winter,True,0.9718,five stars excellent phone!!,True
ORD184023,ID0306968306,2019-01-18,Thompson,"[('Alcon 10', 2), ('pearTV', 2), ('iAssist Line', 2)]",34970,97.91,-37.8158245,144.9326915,15,29822.41,Summer,True,1.3121,great value just as functional as an alcon for a lot less $$,True
ORD121892,ID0248746926,2019-07-08,Bakers,"[('iAssist Line', 2), ('Lucent 330S', 1), ('Universe Note', 1)]",9130,68.59,-37.8238565,144.99824230000004,5,8742.09,Winter,False,1.5654,five stars fast and amazing battery life.,True
ORD424439,ID0589443497,2019-01-10,Nickolson,"[('Lucent 330S', 2), ('Universe Note', 2), ('Candle Inferno', 1), ('Toshika 750', 2)]",18430,93.28,-37.8097825,144.9729276,25,13915.78,Summer,True,1.0249,"cell phone phone is amazing thus far. set up was kind of difficult, but afterwards best phone i have had to date.",True
ORD023551,ID3121574836,2019-04-24,Bakers,"[('pearTV', 1), ('iStream', 2)]",6610,63.68,-37.804123,144.9958114,0,6673.68,Autumn,False,0.6558,"great phone, except for battery life overall i really like the s7 edge. my only complaint so far is the very poor battery life. even when the power saving mode is turned on, the battery drains very quickly for a new phone. once it gets down to around 20%, better find a charger fast!!",True
ORD355424,ID6167279411,2019-08-24,Nickolson,"[('Alcon 10', 2), ('iAssist Line', 1), ('Toshika 750', 2)]",28765,51.65,-37.81024420000001,144.9621553,5,27378.4,Winter,False,1.1345,one star not grand thought wed return but was charged a restocks ng fee :(,False
ORD084544,ID5668009781,2019-05-23,Bakers,"[('Candle Inferno', 1), ('pearTV', 2), ('Lucent 330S', 2), ('Alcon 10', 1)]",24460,64.94,-37.8044276,145.00170649999995,15,20855.94,Autumn,True,0.8417,waste of after few months of use phone started to overheat. shutdown eventually stopped working! waste of money,False
ORD000148,ID0760183042,2019-07-31,Thompson,"[('Alcon 10', 1), ('Toshika 750', 1), ('iAssist Line', 1)]",15495,98.35499999999999,-37.8204843,144.95060990000005,10,14043.855,Winter,False,0.9236,my god sister has been using these for years.what to read more!,True
ORD122822,ID0634783953,2019-02-12,Thompson,"[('Olivia x460', 1), ('Toshika 750', 1)]",5545,93.07,-37.8133096,144.937523,25,4251.82,Summer,True,0.8425,"awesome value why spend $600 for the new tech when this old tech has everything you need? amazing camera quality, awesome display, great touch screen, very durable and reliable! i will keep buying this phone for as long as i can.",True
ORD194849,ID6167344505,2019-11-07,Nickolson,"[('Alcon 10', 2), ('Universe Note', 2), ('iStream', 2), ('Toshika 750', 2)]",33740,105.12,-37.8070359,144.9660046,25,25410.12,Spring,True,1.324,easy to use. great picture clarity. wish they had a cellular version.,True
ORD084647,ID0746909624,2019-06-01,Bakers,"[('pearTV', 1), ('Universe Note', 2)]",13210,85.49,-37.8227542,145.0140718,0,13295.49,Winter,True,2.1821,bought 2 i bought myself the note 6 back in january and so far i've had a great experienced with my phone. no issues. everything works just fine. battery life is amazing. last week i purchased another one for my youngest daughter as her old phone died. she loves it. i'm a total fan of xiaomi now.,True
ORD403147,ID0577522582,2019-09-21,Nickolson,"[('Lucent 330S', 2), ('iAssist Line', 1), ('Thunder line', 1)]",6865,99.5,-37.8219199,144.9725456,0,6964.5,Spring,True,0.4542,love phone love the phone. learning more about it everyday.,True
ORD290675,ID0575384236,2019-07-04,Nickolson,"[('iAssist Line', 1), ('Thunder line', 1), ('Candle Inferno', 2), ('iStream', 2)]",5565,63.54,-37.8200086,144.9816241,15,4793.79,Winter,True,1.0732,junk phone only lasted 6 months. i knew the product was not brand new but figured i would get more than 6 months of use out of it...,False
ORD026286,ID6167344514,2019-01-12,Nickolson,"[('Olivia x460', 2), ('Lucent 330S', 1)]",3680,73.63,-37.8098086,144.96688989999996,10,3385.63,Summer,False,1.0057,five stars it look very cool to me,True
ORD151567,ID2789606894,2019-11-21,Bakers,"[('Toshika 750', 1), ('Lucent 330S', 2), ('Olivia x460', 1), ('iAssist Line', 2)]",12455,106.55,-37.8024332,144.9831587,5,11938.8,Spring,True,1.3551,"awsome great phone gave it to my girlfriend she loved it. no problem so far with it, although she loves it more than me!!",True
ORD321289,ID0591276363,2019-05-05,Nickolson,"[('Olivia x460', 2), ('pearTV', 2), ('Candle Inferno', 1), ('iStream', 2)]",15800,66.59,-37.823809,144.9564558,15,13496.59,Autumn,False,1.2895,"very nice i haven't set it up yet, but it is ""like new"" condition. not a single mark on it. it powers up with no issues. looking forward in getting it all config'd.",True
ORD159985,ID0291966939,2019-05-07,Nickolson,"[('Toshika 750', 2), ('pearTV', 2), ('Alcon 10', 1), ('iStream', 2)]",30510,55.72,-37.8000371,144.9744259,25,22938.22,Autumn,False,2.1098,one star didnt come with a sim card can't use it,False
ORD076845,ID3132496573,2019-04-20,Nickolson,"[('Universe Note', 2), ('Alcon 10', 2), ('pearTV', 1), ('Toshika 750', 2)]",39750,64.36,-37.815015,144.96429840000005,0,39814.36,Autumn,False,0.6101,great phone like my phone,True
ORD321414,ID6167441073,2019-10-11,Nickolson,"[('Toshika 750', 1), ('Lucent 330S', 2), ('Candle Inferno', 1)]",7210,73.8,-37.8162009,144.9642033,10,6562.8,Spring,False,0.5405,price its absolutely worth it,True
ORD078985,ID0844488785,2019-09-20,Thompson,"[('Alcon 10', 2), ('Universe Note', 1)]",21350,60.69,-37.8209034,144.9480676,0,21410.69,Spring,False,0.9204,won't work on networks! bought this phone only to be told it would no longer work on network. waste of money and seller knew they would not work and did not say anything.,False
ORD471913,ID0634783940,2019-12-27,Thompson,"[('Universe Note', 2), ('Lucent 330S', 1), ('iAssist Line', 2), ('Candle Inferno', 2)]",13440,78.36,-37.81228770000001,144.9372642,0,13518.36,Summer,True,0.8633,one star i think this product may have been refurbished. it would constantly reboot itself.,False
ORD389157,ID0294624930,2019-03-24,Nickolson,"[('Lucent 330S', 1), ('Universe Note', 2), ('pearTV', 1)]",14440,78.5,-37.8190847,144.963387,25,10908.5,Autumn,True,0.5448,needed aninexpensive and portable iassist device and this works perfectly.,True
ORD148093,ID2935358337,2019-10-03,Bakers,"[('Toshika 750', 2), ('iStream', 2), ('Lucent 330S', 2), ('Olivia x460', 1)]",12625,93.09,-37.82717810000001,144.9940628,0,12718.09,Spring,True,1.9154,worst vedio shown as black white.phone getting hot while charged.clarity of pic not worth.battery getting drained easily.,False
ORD375406,ID2481930364,2019-11-06,Bakers,"[('Lucent 330S', 1), ('Candle Inferno', 2), ('Universe Note', 2)]",8990,73.4,-37.80551060000001,144.9986564,10,8164.4,Spring,False,0.5831,great phone all good for money,True
ORD265577,ID4655129062,2019-06-21,Thompson,"[('Candle Inferno', 2), ('Olivia x460', 1), ('Universe Note', 1), ('Lucent 330S', 2)]",7995,62.22,-37.8096634,144.9475724,0,8057.22,Winter,False,0.338,five stars it works perfectly. just as expected.,True
ORD130751,ID1224854729,2019-06-08,Thompson,"[('iStream', 2), ('Candle Inferno', 2)]",1160,77.44,-37.8133291,144.939352,15,1063.44,Winter,True,0.6826,. good phone in that price.,True
ORD142889,ID0774519013,2019-05-19,Thompson,"[('Alcon 10', 1), ('Lucent 330S', 2), ('iAssist Line', 2)]",15860,80.18,-37.8064508,144.9594605,25,11975.18,Autumn,True,1.2913,the speakers arent too loud.. iassist is great though. besides that naw,True
ORD169142,ID4305736587,2019-07-08,Bakers,"[('Candle Inferno', 2), ('iStream', 2)]",1160,67.22,-37.8131224,145.0139936,5,1169.22,Winter,True,1.6863,internal problems had internal problems. i knew it was refurbished but he said it worked.,False
ORD119431,ID1985557912,2019-11-11,Nickolson,"[('Candle Inferno', 1), ('Lucent 330S', 1)]",1660,85.06,-37.8117833,144.967729,10,1579.06,Spring,True,0.775,one star does not work on sprint!!!!!!,False
ORD200170,ID3610014310,2019-07-13,Bakers,"[('Lucent 330S', 2), ('iAssist Line', 2)]",6910,52.47,-37.8171722,144.98605869999997,5,6616.97,Winter,False,1.1353,two stars didn't like,False
ORD491064,ID0207078719,2019-03-27,Bakers,"[('Lucent 330S', 2), ('pearTV', 1)]",8770,71.61,-37.8211747,145.01544950000005,0,8841.61,Autumn,False,2.1701,"i love xp i love xp,it very good.",True
ORD345591,ID1131986113,2019-05-25,Thompson,"[('pearTV', 2), ('Olivia x460', 1), ('Candle Inferno', 2), ('Universe Note', 1)]",18155,78.26,-37.8150862,144.9450741,15,15510.01,Autumn,True,0.3208,"good phone, but buy it new or actually refurbished. great phone, was pretty beat up beyond what the description lead me to believe, the box was from asia, so setting it up for english was fun... also the camera appears to be defective at times, takes solid white photos.",True
ORD293542,ID0266738765,2019-08-28,Nickolson,"[('Olivia x460', 1), ('Toshika 750', 2), ('Thunder line', 1)]",12045,78.88,-37.8205264,144.9806994,10,10919.38,Winter,True,1.0036,my daughter just loved this candle inferno. she said it was the perfect gift that she could receive.,True
ORD029887,ID0282825791,2019-06-25,Thompson,"[('Thunder line', 2), ('Lucent 330S', 1), ('Candle Inferno', 2), ('Toshika 750', 2)]",15090,52.45,-37.8019411,144.94870680000002,0,15142.45,Winter,False,1.2033,"se congela la pantalla tengo problemas con este tel茅fono, ya que desde el inicio de su compra se le congela la pantalla, no lo recomiendo es muy malo",False
ORD279422,ID3293340269,2019-03-11,Nickolson,"[('Lucent 330S', 2), ('Universe Note', 2), ('pearTV', 1), ('Candle Inferno', 2)]",16530,80.56,-37.8252749,144.9817565,15,14131.06,Autumn,True,1.3057,it is a great phone. very easy to transfer all my contacts ... it is a great phone. very easy to transfer all my contacts and apps from my old universe s3 and works great with cricket wireless.,True
ORD192062,ID0598154601,2019-09-22,Nickolson,"[('pearTV', 1), ('Toshika 750', 1), ('Lucent 330S', 2), ('Olivia x460', 2)]",15540,58.07,-37.8175628,144.9673906,25,11713.07,Spring,False,0.222,arrived in damaged condition the phone has scratches. i returned it and waiting for my full refund. very disappointed.,False
ORD241369,ID0282854647,2019-11-04,Bakers,"[('Candle Inferno', 2), ('Universe Note', 2), ('pearTV', 1)]",14070,171.14999999999998,-37.7997219,145.0186542,0,14241.15,Spring,True,2.3562,super easy to set up.  easy to use. lots of app options available.,True
ORD293062,ID6167344367,2019-10-14,Nickolson,"[('Universe Note', 2), ('Olivia x460', 2), ('iAssist Line', 1)]",11575,74.16,-37.81470570000001,144.96882069999995,10,10491.66,Spring,False,0.4377,i bought this for my mother for christmas. she is not the most technological advanced individual. she really wanted a tablet and this one works great and is super easy to use. i went to program it for her and she insisted on doing it herself. she was able to no problem!,True
ORD140091,ID0317729759,2019-09-09,Thompson,"[('iAssist Line', 2), ('Lucent 330S', 1), ('Olivia x460', 1)]",6905,78.18,-37.8091736,144.9563099,10,6292.68,Spring,False,0.9012,awesome phone and price. good phone so far. it's not a typical android interface so it'll take some getting used to.,True
ORD383249,ID0589424504,2019-01-22,Nickolson,"[('Olivia x460', 2), ('iStream', 1), ('Lucent 330S', 2), ('Universe Note', 1)]",8510,93.92,-37.8095776,144.97265339999996,5,8178.42,Summer,True,1.0402,"good quality phone. well built, good power, no glitches. i've had many android phones like olivia, lg, and huawei. this is my 3rd lucentrola, and they consistently have had good build quality.",True
ORD120623,ID1833115018,2019-02-28,Thompson,"[('Candle Inferno', 2), ('Universe Note', 2), ('pearTV', 2)]",20380,109.77000000000001,-37.8077923,144.95450280000003,10,18451.77,Summer,False,0.8501,battery life i've been enjoying my phone. had 2 note 4 before and i'm glad i went back.,True
ORD440348,ID0301548220,2019-06-05,Bakers,"[('Universe Note', 1), ('Alcon 10', 2), ('iAssist Line', 2), ('Candle Inferno', 1)]",26230,33.125,-37.8065557,144.9852247,15,22328.625,Winter,False,0.9598,"gets the job done and mom is happy not having to ""learn"" another phone simple. gets the job done and mom is happy not having to ""learn"" another phone.",True
ORD315949,ID4283908893,2019-01-05,Nickolson,"[('Olivia x460', 2), ('Lucent 330S', 1), ('Alcon 10', 1)]",12630,72.81,-37.81249920000001,144.9742733,10,11439.81,Summer,False,0.7956,build like a tank but... as always xp phones are build like a tank but... poor camera front and rear cam has this redness cloud in the screen.,True
ORD027389,ID0247532604,2019-11-30,Thompson,"[('Alcon 10', 1), ('pearTV', 2)]",21570,99.84,-37.8177563,144.95163159999996,25,16277.34,Spring,True,0.6937,"very good. good buy works very well, very good. good buy.",True
ORD061963,ID0589398626,2019-06-22,Nickolson,"[('Candle Inferno', 2), ('iAssist Line', 2), ('Thunder line', 1)]",7490,63.73,-37.8123696,144.9736957,0,7553.73,Winter,False,0.783,...that is works after awhile and gives me no issues it was a good phone for about 3 to 4 years but it blacked out had to upgrade.,True
ORD095042,ID1545387649,2019-04-06,Thompson,"[('Universe Note', 1), ('Thunder line', 2)]",7810,81.25,-37.8009923,144.9566858,10,7110.25,Autumn,True,1.5512,very cool and lots of fun! used for a week and still learning its capabilities.,True
ORD211188,ID6167344493,2019-02-28,Nickolson,"[('Universe Note', 2), ('Alcon 10', 2)]",24800,75.84,-37.8087126,144.9663936,10,22395.84,Summer,False,1.1346,phone activated perfectly on verizon account. only downside is ... phone activated perfectly on verizon account. only downside is no warranty. if you buy this make sure you get the warranty. these phones are expensive to replace,True
ORD422869,ID0222987367,2019-03-18,Bakers,"[('Thunder line', 1), ('Toshika 750', 2), ('Lucent 330S', 2), ('iStream', 2)]",13580,98.17500000000001,-37.8067851,144.9880745,15,11641.175,Autumn,False,0.7239,this phone is durable. this is the first phone i bought online and i am not disappointed. so far i have dropped it 4 times without a case and it did not take any damage.,True
ORD011398,ID0769188525,2019-04-19,Nickolson,"[('Toshika 750', 1), ('Universe Note', 2)]",11220,103.59,-37.8011793,144.9739477,10,10201.59,Autumn,False,1.9769,great phone love love love this phone it is everything i was looking for. the camera is practically in hd. if i was given the option to purchase again i will,True
ORD487963,ID1492410217,2019-05-21,Nickolson,"[('Universe Note', 1), ('Lucent 330S', 2), ('iStream', 1)]",6060,67.8,-37.8045134,144.96317480000005,15,5218.8,Autumn,False,1.6648,excellent purchase. came as advertised. blemish free and performs like new. looking forward too years of use.,True
ORD138343,ID1668523241,2019-07-16,Nickolson,"[('iAssist Line', 2), ('Lucent 330S', 2), ('Candle Inferno', 1)]",7340,75.01,-37.820351,144.9640389,25,5580.01,Winter,True,0.5226,"great phone for the money i need a cheap phone for foreign travel and found that this recently released phone has pretty good reviews. to be honest, its just as good as my alcon 6 in most ways, though the audio is not quite as good. for the money, a great phone.",True
ORD371712,ID4315295084,2019-08-11,Bakers,"[('Thunder line', 2), ('Toshika 750', 1), ('pearTV', 2)]",21300,60.18,-37.8166534,144.9906965,15,18165.18,Winter,True,0.8416,being able to use the product i pay for. the phone was locked and verizon would not unlock it. t-mobile is my carrier and they couldn't unlock the phone and they tried to get verizon to unlock it and they refused. sending it back. can't use a locked phone.,False
ORD317628,ID3144992707,2019-02-19,Bakers,"[('iAssist Line', 1), ('pearTV', 2), ('Olivia x460', 2), ('Toshika 750', 1)]",21615,45.555,-37.8140575,144.9901368,10,19499.055,Summer,True,0.6365,good good phone for price,True
ORD201106,ID4518401167,2019-04-07,Thompson,"[('iAssist Line', 2), ('pearTV', 2), ('Olivia x460', 1), ('Alcon 10', 2)]",36195,65.51,-37.8070107,144.9490826,15,30831.26,Autumn,False,0.6547,five stars fantastic,True
ORD050423,ID0371972624,2019-05-13,Nickolson,"[('Candle Inferno', 1), ('Toshika 750', 1), ('Lucent 330S', 1), ('Alcon 10', 1)]",14930,52.8,-37.8064398,144.9721477,15,12743.3,Autumn,False,1.3722,"i'm waiting for the phone!!! months van varios meses. y no me entregan ni el celular , ni devuelven el dinero!",False
ORD084250,ID3804569172,2019-11-24,Bakers,"[('Alcon 10', 1), ('iStream', 2), ('Olivia x460', 2)]",11700,89.45,-37.8202297,144.9894253,15,10034.45,Spring,True,1.2484,"i do not recommend the item or company this item is not unlocked to all networks, only to at&t. i do not recommend the item or company company xp lumia 635 at&t gsm unlocked rm-975 4g lte 8gb windows 8.1 smartphone - black.",False
ORD175166,ID4312130284,2019-11-09,Bakers,"[('Olivia x460', 2), ('Thunder line', 1), ('iAssist Line', 2), ('pearTV', 1)]",15390,62.14,-37.8199256,144.99215690000003,5,14682.64,Spring,False,1.1379,"such waste of im using metro pcs and it always said ""phone not allowed mm#6"" and the description said its unlock phone but still is not unlock , now i cant use the phone !! thank you ! such waste of money",False
ORD079876,ID6167418092,2019-09-17,Nickolson,"[('Toshika 750', 2), ('iStream', 1), ('Thunder line', 1)]",10970,78.98,-37.8112033,144.9731309,10,9951.98,Spring,False,0.881,im loving it so far so good,True
ORD241319,ID4162427921,2019-07-07,Nickolson,"[('iStream', 1), ('Candle Inferno', 2)]",1010,61.55,-37.8197057,144.9706935,0,1071.55,Winter,False,0.1593,works great. easy set up.,True
ORD131444,ID0588197311,2019-04-16,Nickolson,"[('Candle Inferno', 2), ('pearTV', 1), ('Olivia x460', 2), ('Thunder line', 1)]",11800,49.37,-37.8121065,144.9738372,10,10669.37,Autumn,False,0.8147,not an unlocked phone. i bought this phone as a present for my uncle and i was greatly mortified when i realised it was locked after i gave it to him and transferred all his stuff onto it.,False
ORD389175,ID0781006787,2019-10-03,Thompson,"[('iStream', 2), ('pearTV', 2), ('Toshika 750', 2), ('iAssist Line', 1)]",23785,103.22,-37.8029968,144.9494294,0,23888.22,Spring,True,1.097,"good speed compared to the other models just the size and weighs very little. large viewing area for a 8"" tablet hd",True
ORD242374,ID0448103554,2019-09-05,Thompson,"[('Toshika 750', 2), ('Candle Inferno', 1), ('Lucent 330S', 2), ('pearTV', 1)]",17840,104.21,-37.81524829999999,144.93410730000005,0,17944.21,Spring,True,1.1753,the screen picture is crisp and bright. i will use this tablet for many things.,True
ORD427103,ID0248746725,2019-08-15,Bakers,"[('Candle Inferno', 2), ('pearTV', 2), ('iStream', 1), ('Alcon 10', 2)]",31530,64.4,-37.8151859,144.9939064,0,31594.4,Winter,False,0.5894,the phone meet my expectations. late but its fine and work fine.,True
ORD132870,ID4520380489,2019-09-13,Thompson,"[('iAssist Line', 2), ('Lucent 330S', 2), ('Universe Note', 2)]",13810,154.23,-37.8064681,144.9558626,5,13273.73,Spring,True,1.0369,this phone brings me joy. i've used prepaid phones for years and i have to say this is the best one by far. i am happy and will buy again.,True
ORD048868,ID0144720206,2019-05-02,Nickolson,"[('Toshika 750', 1), ('Alcon 10', 1), ('pearTV', 1)]",19580,100.995,-37.8204972,144.95670890000005,25,14785.995,Autumn,False,1.1489,i bought this for my 6 year old and it's perfect. faster & clearer than older versions.,True
ORD065544,ID0660546020,2019-05-30,Bakers,"[('iStream', 1), ('Lucent 330S', 2)]",2610,63.95,-37.81184,144.98924530000005,10,2412.95,Autumn,False,0.5651,great superb.... exactly what i wanted.. no issues,True
ORD006510,ID0137172748,2019-07-26,Thompson,"[('Alcon 10', 1), ('Thunder line', 2), ('Candle Inferno', 2), ('Universe Note', 1)]",17620,78.56,-37.8049481,144.9562368,0,17698.56,Winter,True,1.1788,"annoying. otherwise i really like the phone has some sort of glitch. freezes up, some sort of pop-up message about google. i have to do a master reset. annoying. otherwise i really like the phone. very durable. easy to use for a newbie to smart phones.",True
ORD123289,ID1463620602,2019-02-20,Bakers,"[('Thunder line', 1), ('Candle Inferno', 1)]",2610,62.81,-37.8174936,145.00401730000004,15,2281.31,Summer,False,1.1373,incorrect advertisement phone was not unlocked as advertised,False
ORD252170,ID2279153646,2019-09-18,Nickolson,"[('Lucent 330S', 1), ('iAssist Line', 1), ('Alcon 10', 2), ('Candle Inferno', 2)]",22215,76.72,-37.8122037,144.9745305,0,22291.72,Spring,False,0.8354,so-so i love windows and xp but the screen is not as sensitive to touch as it should be,True
ORD474093,ID0579490936,2019-09-17,Thompson,"[('Candle Inferno', 2), ('Alcon 10', 1)]",9810,73.03,-37.8151395,144.95044099999996,10,8902.03,Spring,False,0.4041,"this phone has all the relevant functions, and all these functions are perfectly implemented. fantastic smartphone! bravo lucentrola!",True
ORD143690,ID0575434375,2019-07-15,Nickolson,"[('Toshika 750', 1), ('iAssist Line', 1), ('Candle Inferno', 1), ('Olivia x460', 1)]",8200,67.03,-37.8207703,144.9848428,15,7037.03,Winter,False,1.3663,"great product, and i like the screen for a alarm clock",True
ORD210589,ID6167229075,2019-01-14,Nickolson,"[('Candle Inferno', 2), ('iStream', 2), ('Alcon 10', 1)]",10110,93.94,-37.8205448,144.95745459999995,0,10203.94,Summer,True,1.0856,four stars the cel phone came with a burned pixel that didnt fix... the rest was ok,True
ORD018458,ID5884356129,2019-11-17,Thompson,"[('Lucent 330S', 2), ('Olivia x460', 2), ('Thunder line', 2)]",9270,81.36,-37.823717,144.9376977,5,8887.86,Spring,False,1.48,i love the camera on this thing i love the camera on this thing! i want to do nothing but take pics and videos all day.,True
ORD040899,ID2641765498,2019-08-29,Nickolson,"[('Thunder line', 1), ('pearTV', 1), ('iStream', 2), ('Alcon 10', 1)]",17740,67.16,-37.8228248,144.95794919999997,15,15146.16,Winter,False,1.1236,great great product and service,True
ORD374428,ID2885195904,2019-01-11,Nickolson,"[('iStream', 1), ('Olivia x460', 1), ('Toshika 750', 2), ('Candle Inferno', 1)]",10445,78.74,-37.80465870000001,144.97134519999997,0,10523.74,Summer,False,1.5594,works fine was as pictured and is functioning great.,True
ORD300217,ID2202858906,2019-02-19,Thompson,"[('Toshika 750', 1), ('Lucent 330S', 1), ('Alcon 10', 1)]",14500,76.34,-37.82144,144.9538043,15,12401.34,Summer,False,1.1416,very happy. i broke the glass on the one i've ... very happy. i broke the glass on the one i've had for 3+ yrs. this one is identical. perfect size for me. the newer ones won't fit a shirt pocket anymore,True
ORD446860,ID0373644746,2019-06-01,Thompson,"[('Candle Inferno', 2), ('Thunder line', 1), ('iAssist Line', 1), ('Toshika 750', 2)]",13905,69.4,-37.8083237,144.9212169,5,13279.15,Winter,True,2.3245,speaker issues the speaker worked very poorly. you can barely hear someone speak even when the volume is all the way up,False
ORD400367,ID2069174452,2019-10-24,Bakers,"[('Alcon 10', 1), ('Toshika 750', 1), ('iAssist Line', 2)]",17720,106.38,-37.8002402,144.984491,25,13396.38,Spring,True,1.4394,five stars so far so good!,True
ORD280473,ID4516157159,2019-12-27,Thompson,"[('Candle Inferno', 2), ('Lucent 330S', 1), ('Alcon 10', 1)]",11040,76.41,-37.8206574,144.94119650000005,0,11116.41,Summer,False,1.0279,great phone great price like everything disklike nothing,True
ORD369615,ID0298045598,2019-12-06,Nickolson,"[('pearTV', 2), ('Candle Inferno', 2)]",13480,93.54,-37.823214,144.9651841,5,12899.54,Summer,True,0.6417,the technology is the best i have ever seen. great phone. this is my second one. this one is for my wife. she saw how good mine was and now she has her own.,True
ORD475067,ID0021578117,2019-01-25,Thompson,"[('Toshika 750', 2), ('Alcon 10', 2)]",26540,87.78,-37.8116151,144.94564430000003,5,25300.78,Summer,True,0.172,"dope perfect, highly recommended, don't waste your money on $750 us version, at the end they are both gonna do the same work.",True
ORD475261,ID0579502235,2019-05-16,Thompson,"[('Candle Inferno', 1), ('iAssist Line', 1)]",2655,78.24,-37.8148461,144.9506248,0,2733.24,Autumn,True,0.3953,works perfect amazing phone works great,True
ORD462387,ID0477079436,2019-08-22,Nickolson,"[('Toshika 750', 1), ('Candle Inferno', 1)]",4750,79.54,-37.8078471,144.9744618,10,4354.54,Winter,True,1.272,five stars super awesome phone! i am loving it so far.,True
ORD249714,ID3185718965,2019-05-07,Bakers,"[('pearTV', 2), ('Olivia x460', 2), ('Thunder line', 1)]",17250,68.14,-37.7991923,144.98766609999996,10,15593.14,Autumn,False,1.3745,"would buy again good, wellmade, piece of equipment.",True
ORD423434,ID0579392261,2019-03-20,Nickolson,"[('Toshika 750', 1), ('Thunder line', 1), ('iAssist Line', 1)]",8725,52.68,-37.822232,144.9559424,10,7905.18,Autumn,False,1.2633,difficult to use the phone came with very little information and getting a booklet on line was impossible. the features were difficult to assess and the volume control wa snot working.,False
ORD289724,ID2877340267,2019-02-08,Bakers,"[('Candle Inferno', 2), ('Thunder line', 1), ('Universe Note', 2)]",9940,102.33,-37.82149,145.0052602,0,10042.33,Summer,True,1.5539,fun taking to the tv. works good. its a little confusing moving around the programs.,True
ORD458949,ID6167191697,2019-02-19,Thompson,"[('Toshika 750', 2), ('Olivia x460', 2), ('pearTV', 1), ('iAssist Line', 2)]",21850,75.66,-37.818865,144.9548997,5,20833.16,Summer,False,0.9743,"works fine, had a scratch on back. love the phone. i gave it a 4 overall because it came with a scratch on the back. i understand it's refurbished and these things can be expected, but that's why i gave it a four star rating. other than the scratch on the back, everything seems to work fine so far!",True
ORD478431,ID0356125087,2019-08-05,Nickolson,"[('Candle Inferno', 1), ('iAssist Line', 1), ('iStream', 2), ('Toshika 750', 1)]",7275,78.27,-37.8165761,144.98014730000003,15,6262.02,Winter,True,0.9585,i love it i like this phone,True
ORD152105,ID2133731374,2019-12-13,Thompson,"[('Universe Note', 2), ('Thunder line', 2), ('Candle Inferno', 2), ('Alcon 10', 2)]",30020,128.97,-37.8145736,144.946566,15,25645.97,Summer,True,0.2161,"great phone take a little time to get use to the windows 8 os, and there aren't as many apps, but overall it a great phone",True
ORD182189,ID1953967173,2019-09-03,Thompson,"[('Lucent 330S', 2), ('Thunder line', 2), ('Candle Inferno', 2)]",7680,107.9,-37.8019674,144.9594925,0,7787.9,Spring,True,1.6168,"nice looking, powerful phone i have been using it for less than a week. so far, so good!",True
ORD130294,ID5002595124,2019-06-30,Thompson,"[('Thunder line', 2), ('Olivia x460', 2), ('iStream', 2), ('Alcon 10', 2)]",25010,113.14500000000001,-37.812211,144.9531266,15,21371.645,Winter,True,0.5352,excellent condition it works great..!,True
ORD196414,ID0746918008,2019-12-28,Nickolson,"[('Toshika 750', 1), ('iStream', 2)]",4620,99.03,-37.8243701,144.9828365,15,4026.03,Summer,True,1.3334,love this tablet! super bright colors! great for gamers! can't bet this tablet for any price!,True
ORD453672,ID1879180936,2019-12-28,Thompson,"[('pearTV', 1), ('Olivia x460', 2), ('iAssist Line', 1), ('Toshika 750', 1)]",15305,84.61,-37.799533200000006,144.9600147,5,14624.36,Summer,False,1.8536,five stars love it !,True
ORD484303,ID2713724549,2019-06-02,Nickolson,"[('pearTV', 2), ('Thunder line', 1), ('Olivia x460', 2), ('iStream', 2)]",17550,63.52,-37.8133369,144.96269009999997,15,14981.02,Winter,True,0.8406,"do not recommend battery dying very fast, if in usage battery will last 1 hour and stand by only 6 hours.",False
ORD099115,ID0579410717,2019-09-02,Nickolson,"[('Universe Note', 1), ('pearTV', 1), ('Lucent 330S', 2), ('Thunder line', 1)]",14400,74.49,-37.821937,144.9683219,10,13034.49,Spring,False,0.3874,"works as expected. i enjoy reading newspaper articles, books, as well as banking apps and social media tools.",True
ORD283059,ID5402876203,2019-04-30,Nickolson,"[('Universe Note', 2), ('iStream', 2), ('Olivia x460', 1), ('iAssist Line', 2)]",12875,32.67,-37.8217389,144.9779324,10,11620.17,Autumn,False,0.8159,"good for the price i wish the front camera was better but for the price i paid $127, this is a great phone.",True
ORD244510,ID2716423441,2019-03-21,Thompson,"[('Alcon 10', 1), ('Toshika 750', 2), ('iStream', 2)]",17890,118.005,-37.81442360000001,144.946891,25,13535.505,Autumn,True,0.1955,"this is a very good tablet for the price, especially for digico gold members. the display is very sharp and so far the battery life is excellent!",True
ORD216913,ID0026034534,2019-09-29,Thompson,"[('Universe Note', 2), ('iAssist Line', 2), ('iStream', 2)]",11650,101.02,-37.8146466,144.9578555,10,10586.02,Spring,True,0.9737,did not fail did not fail. easy set up. camera is amazing. keyboard large and easy to use.,True
ORD337635,ID0282825905,2019-02-02,Thompson,"[('Thunder line', 1), ('Lucent 330S', 2)]",4640,60.91,-37.803578,144.9539284,15,4004.91,Summer,False,1.1786,phone is not unlocked! phone is not unlocked. also has scratches on the glass.,False
ORD127470,ID1964023962,2019-05-06,Thompson,"[('Alcon 10', 2), ('iAssist Line', 2)]",22350,65.47,-37.8173159,144.9531882,25,16827.97,Autumn,False,0.7461,great and cool the product is great and the upgrade is great too. i don't know why people say is a junk. i am on the united states and i'm using this phone. i'm loving it like food. so nice. and fast. clear and the camera is great.,True
ORD237551,ID0202495424,2019-09-23,Thompson,"[('Universe Note', 2), ('iAssist Line', 1), ('Toshika 750', 2)]",17765,111.22,-37.80184000000001,144.9287179,25,13434.97,Spring,True,2.0147,"no wifi calling other than that it's a good bang for the buck nice phone for the money great battery life, average camera, however the wifi caller is not supported and i really needed it",True
ORD397384,ID5058108344,2019-04-10,Nickolson,"[('iStream', 1), ('Alcon 10', 2), ('Lucent 330S', 1)]",19280,76.3,-37.8224718,144.9694108,15,16464.3,Autumn,True,0.4317,"great phones! i purchased two of these for a couple of over seas friends, and according to them, the phones are working fine. couldn't be happier!",True
ORD242780,ID5457965888,2019-08-15,Thompson,"[('Toshika 750', 1), ('iStream', 2), ('Alcon 10', 2), ('iAssist Line', 1)]",24745,114.01500000000001,-37.81941079999999,144.9416811,5,23621.765,Winter,True,0.8871,handy to use and size is good. it's light weight and that's important.,True
ORD428399,ID0033238509,2019-05-07,Nickolson,"[('Olivia x460', 2), ('iStream', 2)]",2750,71.68,-37.8009255,144.9683292,15,2409.18,Autumn,False,1.9699,excellent excellent,True
ORD375528,ID6143862342,2019-07-19,Bakers,"[('Toshika 750', 2), ('Lucent 330S', 2), ('Universe Note', 1), ('iStream', 1)]",14700,64.44,-37.8031089,145.00345359999997,15,12559.44,Winter,True,1.0539,basura no sirven de rompen rapido,False
ORD384982,ID0596918519,2019-12-31,Nickolson,"[('iStream', 1), ('Thunder line', 2)]",4510,75.32,-37.8106481,144.9659281,0,4585.32,Summer,False,0.9402,works great!,True
ORD189358,ID0591306361,2019-10-26,Nickolson,"[('iAssist Line', 2), ('Toshika 750', 2), ('iStream', 2)]",13390,79.99,-37.825062,144.9569625,15,11461.49,Spring,False,1.3204,better than expected great!,True
ORD189430,ID0777828239,2019-04-24,Thompson,"[('Toshika 750', 2), ('Olivia x460', 1)]",9865,68.07,-37.8040767,144.95916709999997,15,8453.32,Autumn,False,1.431,cannot be turned on thru verizon great got gaming and has a crisp display,True
ORD247586,ID0420022675,2019-11-06,Bakers,"[('Universe Note', 1), ('Thunder line', 1), ('Candle Inferno', 1), ('iStream', 2)]",6360,48.06,-37.8111528,144.9970476,0,6408.06,Spring,True,0.2051,three stars it's okay,True
ORD109742,ID0767729978,2019-09-09,Nickolson,"[('iStream', 1), ('Toshika 750', 2)]",8790,82.29,-37.8044542,144.9707468,0,8872.29,Spring,False,1.5776,five stars excellent and extremely fast shipping,True
ORD089552,ID6167254956,2019-11-11,Nickolson,"[('iAssist Line', 2), ('iStream', 2), ('Universe Note', 1)]",8200,80.72,-37.8165829,144.9700231,10,7460.72,Spring,True,0.2278,"beware used this phone for almost two weeks before it started giving me problems. it would have 90% battery then randomly turn off and indicate ""0% battery"". what a pain in the ass. and unfortunately, you can't replace the battery. i do like this phone, i hope they will send me a different one as i'm not opposed to trying again.",False
ORD125763,ID1597555513,2019-08-09,Nickolson,"[('Olivia x460', 1), ('Lucent 330S', 1), ('Universe Note', 2), ('Toshika 750', 2)]",17995,50.69,-37.8196032,144.977878,25,13546.94,Winter,False,0.7408,"a little shaky the phone is beginning to malfunction by making beeping sounds, switching to other apps while in another, and freezing. i want to exchange before it gets worse.",False
ORD036287,ID0131238689,2019-08-22,Nickolson,"[('Alcon 10', 2), ('Lucent 330S', 2)]",20360,77.51,-37.8140301,144.9626401,5,19419.51,Winter,True,0.7922,"as good as new i received my phone today and in all honesty, the packaging and quality of the phone is practically new. everything was presented great and the seller really made the items feel as good as new. there was no cracks, scratches, or embellishments.",True
ORD020421,ID0577356948,2019-12-03,Bakers,"[('Universe Note', 2), ('Thunder line', 1), ('iStream', 2), ('Alcon 10', 2)]",27280,80.29,-37.8240755,144.9901132,10,24632.29,Summer,False,1.6306,"this product is very good, i like it this product is very good, i like it",True
ORD492435,ID2700682442,2019-01-30,Nickolson,"[('Toshika 750', 2), ('Universe Note', 2), ('iStream', 1), ('pearTV', 1)]",22000,36.94,-37.8233794,144.97663380000003,5,20936.94,Summer,False,0.8195,five stars everything i had hoped for,True
ORD042165,ID2457712069,2019-12-31,Bakers,"[('Toshika 750', 1), ('iStream', 2), ('Thunder line', 1)]",6800,80.18,-37.80526210000001,144.97877130000003,25,5180.18,Summer,False,1.5406,the phone works well. i like the camera quality and the look of the phone. the sd card it came with as a bundle deal does not work at all. that's my only regret.,True
ORD289161,ID4315827378,2019-01-22,Bakers,"[('Olivia x460', 2), ('iStream', 2), ('Toshika 750', 2), ('Lucent 330S', 2)]",13850,76.61,-37.8216329,144.9986131,15,11849.11,Summer,False,1.3291,"works well for recipes and references. nice device, just the right size.",True
ORD154159,ID0591258325,2019-07-07,Thompson,"[('Alcon 10', 1), ('iStream', 2), ('Toshika 750', 1), ('Candle Inferno', 1)]",14000,68.66,-37.8241714,144.9537569,5,13368.66,Winter,False,1.4086,"five stars like new condition, so far very happy :)",True
ORD281376,ID0370243860,2019-11-19,Nickolson,"[('iStream', 2), ('iAssist Line', 1), ('pearTV', 1), ('Candle Inferno', 1)]",9265,43.18,-37.8012518,144.9684763,15,7918.43,Spring,False,1.9329,sim free international sim one of the best item i ever bought on digico the mobile came in sealed box works smoothly will order again thanks,True
ORD302513,ID2384097340,2019-02-21,Thompson,"[('Thunder line', 1), ('Toshika 750', 2), ('iAssist Line', 2)]",15270,107.94,-37.810106,144.9555752,25,11560.44,Summer,False,0.8008,five stars great phone... work perfectly and fast,True
ORD147119,ID0781005372,2019-10-17,Thompson,"[('Alcon 10', 2), ('iAssist Line', 1), ('pearTV', 1)]",26435,86.9,-37.8054045,144.9520045,10,23878.4,Spring,True,0.9182,mi a2 update had the phone 3 weeks and parts of the screen started freezing up. i returned the phone just before the time was up. i don't know if mine was just defective or this was an inherent trait of the phone.,False
ORD271734,ID0131213185,2019-08-26,Nickolson,"[('Olivia x460', 1), ('Toshika 750', 1), ('Alcon 10', 1), ('Candle Inferno', 1)]",14925,65.16,-37.8133061,144.9603376,0,14990.16,Winter,False,1.0015,great buy the phone was in amazing condition. the battery is also in impressive condition and holds its charge well. my mom loves her new phone.,True
ORD078969,ID0588197070,2019-03-26,Nickolson,"[('Toshika 750', 2), ('Lucent 330S', 2)]",11100,65.79,-37.8121845,144.97386569999995,0,11165.79,Autumn,False,0.8082,i like that there are several ways to unlock the phone i like that there are several ways to unlock the phone. i can put in a pin or i can get in by finger print. i dont like the calendar on this phone because it doesnt give me a mail app.,True
ORD049241,ID0395252764,2019-04-13,Bakers,"[('iStream', 1), ('iAssist Line', 1)]",2375,55.99,-37.7994265,144.97719709999996,15,2074.74,Autumn,False,1.9749,missing parts this is not new! my package was already opened and the sim card holder was missing!,False
ORD281313,ID0746912862,2019-09-06,Nickolson,"[('Alcon 10', 2), ('iStream', 1)]",18050,81.67,-37.8247407,144.98491409999997,0,18131.67,Spring,False,1.5143,great phone so far my phone works great batt life is excellent. no issues for now,True
ORD185448,ID1224869063,2019-03-29,Thompson,"[('iAssist Line', 2), ('Candle Inferno', 2), ('Lucent 330S', 1)]",6540,78.58,-37.8136469,144.94090219999995,10,5964.58,Autumn,True,0.553,the quality! the performance is great! i am very surprised with this phone. recommended100%,True
ORD438349,ID0313252160,2019-03-18,Bakers,"[('Candle Inferno', 2), ('Thunder line', 1), ('Universe Note', 1), ('iStream', 1)]",6640,122.77499999999999,-37.8127226,145.014345,10,6098.775,Autumn,True,1.7081,"bought this for my father in law who is not tech savvy. the free ""may day"" feature is the best part- i don't get called for tech support all of the time.",True
ORD104422,ID0711331433,2019-09-14,Thompson,"[('iStream', 2), ('Thunder line', 1)]",2480,101.86,-37.8072596,144.95739609999995,10,2333.86,Spring,True,1.09,use it as alarm clock now great phone,True
ORD487505,ID1283634748,2019-01-08,Thompson,"[('Thunder line', 2), ('iStream', 1)]",4510,102.48,-37.80161629999999,144.9585272,0,4612.48,Summer,True,1.5907,great item! would definitely recommend this item -- am still learning all the things about it.,True
ORD107382,ID5402876199,2019-02-12,Nickolson,"[('Olivia x460', 1), ('Toshika 750', 1)]",5545,77.56,-37.8204901,144.9772915,0,5622.56,Summer,True,0.7126,"this phone is a scam. does not hold battery life. absolutely terrible phone. battery drain makes it unusable. overheats as well. had my first one replaced and now the same exact issue is happening, huawei and square trade both refuse to replace it again and want to repair it. don't get ripped off by buying this piece of garbage.",False
ORD417009,ID5232347250,2019-11-22,Thompson,"[('iAssist Line', 1), ('Thunder line', 2)]",6585,72.73,-37.81167,144.9485497,15,5669.98,Spring,False,0.1716,"look as new good phone, as new",True
ORD494843,ID0554206049,2019-05-18,Thompson,"[('iStream', 2), ('Olivia x460', 2), ('Universe Note', 1)]",6200,65.74,-37.8006466,144.9357718,0,6265.74,Autumn,True,1.6672,"returned after first week ended up returning this phone after a week. the touchscreen had problems, as well as the barcode scanner",False
ORD382532,ID3954626882,2019-09-21,Nickolson,"[('Thunder line', 1), ('iStream', 2)]",2480,106.15,-37.8265352,144.95552080000004,15,2214.15,Spring,True,1.5176,great phone great phone,True
ORD214509,ID0153681683,2019-04-02,Bakers,"[('Universe Note', 1), ('Olivia x460', 2), ('Lucent 330S', 1), ('iAssist Line', 1)]",9355,81.58,-37.8006194,145.0102248,0,9436.58,Autumn,True,1.6818,olivia s7 im enjoying the phone,True
ORD399461,ID2302316260,2019-09-03,Nickolson,"[('iAssist Line', 1), ('Thunder line', 2)]",6585,78.43,-37.81135379999999,144.9785104,10,6004.93,Spring,False,1.1272,five stars recommended 100%. everything was as the ad said.,True
ORD185787,ID0593991656,2019-06-22,Nickolson,"[('Toshika 750', 1), ('Candle Inferno', 2), ('Alcon 10', 2), ('pearTV', 1)]",29390,59.35,-37.8152976,144.9661142,0,29449.35,Winter,True,0.4755,would not turn on i returned ipad...it would not turn on,False
ORD052856,ID4998966832,2019-05-14,Nickolson,"[('Lucent 330S', 2), ('Thunder line', 2)]",6820,66.89,-37.809775,144.97240109999996,10,6204.89,Autumn,True,1.0133,one star phone did not come just an empty box with accessories.,False
ORD108815,ID4283908129,2019-10-10,Bakers,"[('iAssist Line', 2), ('pearTV', 1), ('iStream', 1), ('Universe Note', 1)]",14360,78.51,-37.8089287,144.98256919999997,0,14438.51,Spring,False,1.12,five stars amazing phone... until you get a note 4. ;-),True
ORD295384,ID1679232398,2019-09-25,Bakers,"[('Toshika 750', 1), ('Universe Note', 1), ('Olivia x460', 1), ('Lucent 330S', 2)]",11455,61.67,-37.8015617,144.9967754,5,10943.92,Spring,False,0.9487,problemas con puerto de carga y humedad el tel茅fono me presento problemas con el puerto de carga a los 5 meses de comprado,False
ORD377442,ID2383215085,2019-11-16,Thompson,"[('Toshika 750', 2), ('Universe Note', 2), ('Alcon 10', 2), ('Thunder line', 1)]",35620,40.6,-37.8040396,144.9587842,0,35660.6,Spring,False,1.409,gift to my daughter she loves it.,True
ORD075595,ID1879021169,2019-07-09,Nickolson,"[('pearTV', 2), ('Thunder line', 1), ('Alcon 10', 2), ('Universe Note', 1)]",36150,78.26,-37.8106434,144.9791414,10,32613.26,Winter,True,1.2226,five stars love. love. love this phone!,True
ORD340017,ID0598399386,2019-01-09,Nickolson,"[('Thunder line', 1), ('Candle Inferno', 2), ('Lucent 330S', 2)]",5500,36.12,-37.814074100000006,144.96542019999995,15,4711.12,Summer,False,0.6207,excellent product.relable.maximum speed.fast downloading,True
ORD014337,ID1458418001,2019-07-27,Bakers,"[('pearTV', 2), ('Lucent 330S', 2)]",15080,68.81,-37.8195726,145.0082315,25,11378.81,Winter,False,1.5631,four stars pretty good,True
ORD271764,ID0579510203,2019-03-05,Thompson,"[('Lucent 330S', 2), ('Toshika 750', 1)]",6780,76.77,-37.8137654,144.94806730000005,0,6856.77,Autumn,True,0.15,finally just glad i was sold a working phone this time 3rd time charm patience a virtue,True
ORD215622,ID0035354783,2019-09-21,Thompson,"[('iAssist Line', 1), ('Thunder line', 1), ('Lucent 330S', 1), ('Candle Inferno', 2)]",6495,100.93,-37.8079709,144.9518889,0,6595.93,Spring,True,0.6736,good phone.. good price.,True
ORD450758,ID0746912570,2019-03-25,Nickolson,"[('Candle Inferno', 1), ('Alcon 10', 2)]",18330,81.34,-37.8243631,144.9830635,5,17494.84,Autumn,True,1.3506,great! i am very pleased with my j5. i've had it months now; it's super fast and no problems at all. it was a wonderful purchase. had no problems where the condition is concerned. thumbs up to the seller.,True
ORD035886,ID0227316089,2019-04-08,Bakers,"[('Olivia x460', 1), ('pearTV', 1), ('Thunder line', 1)]",9715,64.46,-37.8033005,144.9895772,5,9293.71,Autumn,True,0.896,horrible phone screen became black by it self after exactly 3 months. phone was never dropped on floor. i have tried all kind of trouble-shootings recommended online. nothing worked. such disappointment as this international version has no warranty,False
ORD116281,ID0591274041,2019-06-21,Nickolson,"[('pearTV', 1), ('Lucent 330S', 1)]",7540,77.15,-37.8236006,144.9561396,15,6486.15,Winter,True,1.3043,no problems great phone great phone battery life could be longer but over all great product,True
ORD308456,ID2768616792,2019-01-07,Nickolson,"[('pearTV', 2), ('iAssist Line', 2), ('Lucent 330S', 2), ('Olivia x460', 1)]",20755,68.14,-37.8180701,144.9668782,0,20823.14,Summer,False,0.2422,"four stars very good phone, except the lacks of gyro sensor and hdmi output",True
ORD443268,ID6167191706,2019-03-08,Thompson,"[('Thunder line', 2), ('Olivia x460', 2)]",6810,79.12,-37.8186429,144.9553319,25,5186.62,Autumn,True,0.9847,five stars everything was perfect,True
ORD291331,ID0163364650,2019-07-15,Thompson,"[('Toshika 750', 2), ('iStream', 1)]",8790,75.37,-37.81361939999999,144.9537478,0,8865.37,Winter,True,0.5967,good tablet for the price. nice display good performance.,True
ORD248588,ID0598405144,2019-01-06,Nickolson,"[('iStream', 2), ('Thunder line', 2), ('Toshika 750', 1), ('Universe Note', 2)]",15880,77.38,-37.814711,144.9635619,15,13575.38,Summer,True,0.6814,"one star ordered this phone, came all in foreign language and was told not compatible!",False
ORD340452,ID0634783945,2019-09-20,Thompson,"[('Universe Note', 1), ('iAssist Line', 1)]",5675,77.48,-37.81250429999999,144.93746330000005,10,5184.98,Spring,False,0.845,it is very handy great when i don't want to use a computer and i can take it anywhere,True
ORD442153,ID0049492962,2019-05-28,Nickolson,"[('iAssist Line', 1), ('pearTV', 1)]",8535,115.44,-37.8194059,144.9714696,15,7370.19,Autumn,True,0.1913,"four stars the battery's life is short, but after that all of function is okay.",True
ORD479677,ID0306530042,2019-06-28,Bakers,"[('Universe Note', 2), ('Thunder line', 2), ('Alcon 10', 1), ('iAssist Line', 2)]",24660,69.08,-37.8226204,144.9922764,15,21030.08,Winter,False,1.4291,mi a3 good product as described.,True
ORD319485,ID0767737648,2019-12-04,Thompson,"[('Olivia x460', 1), ('iAssist Line', 2), ('Universe Note', 2)]",12575,84.04,-37.8040695,144.95828569999995,0,12659.04,Summer,True,1.3749,no sd card in this phone is absolutley idiotic. where is the storage capacity? no sd card in this phone is absolutley idiotic.,False
ORD109452,ID0250933623,2019-01-29,Bakers,"[('iStream', 2), ('Olivia x460', 1), ('pearTV', 2)]",14145,101.9,-37.82275170000001,145.0039638,10,12832.4,Summer,True,1.6142,excellent! fast shipping! product was better than expected  thank you! will buy from seller again,True
ORD226817,ID0207093533,2019-07-24,Bakers,"[('Candle Inferno', 1), ('Lucent 330S', 2)]",2890,79.76,-37.7995439,145.0022776,15,2536.26,Winter,True,1.3182,"they ship on time no scratches, works great, would recommend",True
ORD402814,ID0746912588,2019-05-25,Nickolson,"[('iAssist Line', 1), ('Candle Inferno', 2)]",3085,66.41,-37.8241958,144.9840063,25,2380.16,Autumn,True,1.4158,one star fraud!!!... phone is from brazil and does not work.,False
ORD392061,ID1449431263,2019-05-11,Nickolson,"[('iStream', 2), ('Candle Inferno', 1), ('Lucent 330S', 1), ('Universe Note', 2)]",8860,48.73,-37.8152271,144.97485369999995,0,8908.73,Autumn,False,0.5983,"one star after 6 months, the vibration setting stopped working",False
ORD066764,ID1463656455,2019-09-18,Bakers,"[('Thunder line', 1), ('iAssist Line', 1), ('Lucent 330S', 2)]",6865,102.28,-37.81860560000001,144.9991443,5,6624.03,Spring,True,1.0183,good phone. i love this phone. toshika is doing a great job. just to be tweaking the next model to have a faster ship and a higher roslution.,True
ORD415099,ID6197211470,2019-10-03,Thompson,"[('iStream', 2), ('Lucent 330S', 2)]",2760,105.38,-37.81301060000001,144.93361000000004,5,2727.38,Spring,True,1.1842,nice but slow this is an amazing phone if you are not in a hurry. battery lasts forever and it will do anything but just do it slowly.,True
ORD461717,ID0777787272,2019-01-08,Thompson,"[('Thunder line', 1), ('Olivia x460', 1)]",3405,78.71,-37.8056348,144.953619,10,3143.21,Summer,True,0.9725,i didn't get my product i'm mad,False
ORD317620,ID3161948900,2019-01-30,Thompson,"[('Alcon 10', 2), ('Thunder line', 1), ('pearTV', 2), ('Toshika 750', 2)]",41340,73.11,-37.8089164,144.9565559,15,35212.11,Summer,False,0.9333,great buy. very fast shipping. my brother loves the phone.,True
ORD441835,ID4518639874,2019-07-26,Thompson,"[('Universe Note', 2), ('iStream', 1), ('Lucent 330S', 2)]",9510,50.15,-37.8076317,144.9421924,15,8133.65,Winter,False,0.7063,"insufficient internal storage insufficient internal storage, it should be 32gb, but turned out to be only 8gb. and when connected to computer, it shows ""olivia s6 edge"" rather than ""olivia s7 edge"".",False
ORD184232,ID3810637369,2019-02-04,Thompson,"[('Olivia x460', 1), ('iAssist Line', 2), ('Candle Inferno', 2), ('iStream', 1)]",6685,95.38,-37.8211473,144.94328810000005,10,6111.88,Summer,True,1.0002,satisfied good product good service,True
ORD073929,ID0781094121,2019-05-15,Thompson,"[('Olivia x460', 1), ('Lucent 330S', 2), ('pearTV', 2)]",16305,69.43,-37.8022219,144.9425725,25,12298.18,Autumn,False,1.2288,"todo recibido en tiempo, todo ok",True
ORD164840,ID0224750302,2019-10-07,Bakers,"[('Toshika 750', 2), ('Alcon 10', 2), ('Olivia x460', 2), ('pearTV', 2)]",41610,105.22,-37.80401129999999,144.98219430000003,25,31312.72,Spring,True,1.3261,"five stars great phone, performance is like no other and the camera is top notch",True
ORD241322,ID0248266988,2019-01-06,Bakers,"[('Candle Inferno', 1), ('iAssist Line', 2)]",4880,43.385,-37.8282054,144.9906148,5,4679.385,Summer,False,2.0673,"i do like the inferno stick and im very close to cutting the cable.  i can find many movies and shows, while keeping my budget in check.  im learning how to maneuver around the channels and find my shows quickly.",True
ORD046962,ID0247417664,2019-07-29,Nickolson,"[('iStream', 2), ('Universe Note', 1), ('Olivia x460', 2), ('Thunder line', 2)]",10560,44.73,-37.81747070000001,144.9688721,15,9020.73,Winter,False,0.1387,phone was not unlock when i receive it and an ... phone was not unlock when i receive it and an at&t sim card was in the box. i dont know why it is being advertised and sold as an unlock phone,False
ORD446651,ID0207076134,2019-06-29,Nickolson,"[('iStream', 2), ('Alcon 10', 2)]",18200,75.24,-37.8334823,144.9919732,5,17365.24,Winter,False,2.5755,three stars need help with phone,True
ORD295425,ID0312718318,2019-03-15,Thompson,"[('Candle Inferno', 2), ('Alcon 10', 1), ('Thunder line', 2)]",14170,67.9,-37.803356,144.9618828,10,12820.9,Autumn,True,1.6653,"it stop working and i sent it in to be ... it stop working and i sent it in to be fixed they kept it for a month and it still isn't right ,",False
ORD231815,ID3215106496,2019-01-09,Thompson,"[('Lucent 330S', 1), ('Universe Note', 2), ('iAssist Line', 1), ('iStream', 1)]",10505,137.95499999999998,-37.8080208,144.9530574,0,10642.955,Summer,True,0.7386,"happy and satisfied so far, i am happy and satisfied. worth for the money. the quality of camera and appearance is really awesome!!!",True
ORD200585,ID4754200366,2019-11-26,Thompson,"[('Olivia x460', 2), ('pearTV', 2), ('iAssist Line', 2)]",19520,110.73,-37.8149888,144.92745530000005,5,18654.73,Spring,True,1.744,my new phone the prevail 2 i love my new phone thanx digico!!!! i haven't used all my capabilities with it but it sure beats my other phone,True
ORD051217,ID0634784124,2019-06-03,Thompson,"[('Alcon 10', 1), ('Candle Inferno', 2), ('Olivia x460', 1), ('iStream', 1)]",11185,66.7,-37.8138355,144.93723559999995,5,10692.45,Winter,False,0.8744,bought this as a gift - they seemed to like it. the price was nice and so was the size of it.,True
ORD101857,ID0356125376,2019-10-05,Nickolson,"[('Candle Inferno', 2), ('iAssist Line', 2), ('Lucent 330S', 2)]",7770,86.91,-37.8180788,144.9811044,15,6691.41,Spring,True,1.0176,"deceiving and horrible quality. the phone came with a cracked back, and then bricked itself a day later.",False
ORD327939,ID4655086233,2019-07-01,Thompson,"[('Universe Note', 2), ('iStream', 2), ('Candle Inferno', 2), ('Olivia x460', 2)]",10510,60.18,-37.8106759,144.94620690000005,15,8993.68,Winter,False,0.2349,perfect alcon this phone is amazing. exactly what i asked for. looks and works like new.,True
ORD027008,ID0319157921,2019-08-07,Nickolson,"[('iAssist Line', 1), ('Toshika 750', 1), ('Olivia x460', 2)]",8995,69.48,-37.8056468,144.96821509999995,25,6815.73,Winter,False,1.4461,good phone needed decent phone i could root and this fit the bill. fast enough for my needs and good screen at a reasonable price point.,True
ORD078067,ID3132499902,2019-10-28,Nickolson,"[('pearTV', 2), ('Toshika 750', 2), ('Alcon 10', 1)]",30210,75.61,-37.8153033,144.9631225,25,22733.11,Spring,False,0.6737,i have one i love this i phone,True
