order_id,customer_id,date,nearest_warehouse,shopping_cart,order_price,delivery_charges,customer_lat,customer_long,coupon_discount,order_total,season,is_expedited_delivery,distance_to_nearest_warehouse,latest_customer_review,is_happy_customer
ORD094713,ID1492145844,3/01/2019,Thompson,"[('Thunder line', 1), ('Lucent 330S', 1), ('pearTV', 1), ('Alcon 10', 1)]",18670,70.61,-37.813247,144.9513724,25,14073.11,Summer,False,0.3838,great for mom its inside an owlhead in her jacuzzi,True
ORD024585,ID2173272382,18/05/2019,Thompson,"[('pearTV', 1), ('Candle Inferno', 2), ('Universe Note', 2)]",14070,64.91,-37.8189,144.9538423,25,10617.41,Winter,True,0.9139,nan,True
ORD425942,ID0287629321,1/07/2019,Nickolson,"[('iAssist Line', 2), ('Olivia x460', 1), ('Candle Inferno', 2), ('Universe Note', 1)]",9985,59.44,-37.8048778,144.9515427,0,10044.44,Summer,False,0.9528,"i bought an thunder line that had been refurbished but its stops whatever function its performing quite often, doesn't wake up every time, randomly turns on but does nothing. do not buy a refurbished thunder line.",False
ORD229870,ID1463656474,20/04/2019,Thompson,"[('Alcon 10', 2), ('Universe Note', 2), ('Candle Inferno', 1)]",25230,73.96,-37.8158673,144.9996422,15,21519.46,Spring,False,0.76,like i like,True
ORD470828,ID0591435980,22/01/2019,Thompson,"[('Candle Inferno', 1), ('Toshika 750', 2), ('Olivia x460', 1)]",10295,79.37,-37.8185513,144.9657084,0,10374.37,Autumn,True,0.3379,"the best cell phone ever i use the olivia s9 +, but when i tried the pocophone i really fell in love. it's just fast and the facial unlocking is instant. the equipment is highly customizable and for its price there is nothing better to date. the best purchase i've made so far.",True
ORD187905,ID3144992701,17/01/2019,Nickolson,"[('Universe Note', 1), ('iStream', 2)]",3750,73.74,-37.8150449,144.9886685,25,2886.24,Summer,False,0.8056,thank you ! absolutely love it. it came unlocked. and it worlds wonderfully. i would take a picture but im using it to write this review.inwas skeptical but im glad i took the chance . thanks !,True
ORD197856,ID0127588858,9/12/2019,Thompson,"[('iStream', 1), ('Alcon 10', 1)]",9100,79.87,-37.8004168,144.9449187,0,9179.87,Winter,True,1.3774,good phone the convoy is a great phone. rugged and indestructable.,True
ORD006386,ID6282174159,1/05/2019,Nickolson,"[('Olivia x460', 1), ('Alcon 10', 2), ('Candle Inferno', 1), ('Toshika 750', 2)]",28195,77.3,-37.8230804,144.9779952,0,28272.3,Winter,True,0.8948,the battery goes down super fast. it has an thunder back feed when ... arrived on time from seller. the battery goes down super fast. it has an thunder back feed when use speaker.,True
ORD243901,ID0207085804,15/11/2019,Bakers,"[('Universe Note', 1), ('pearTV', 1)]",9760,71.62,-37.8104815,145.015893,5,9343.62,Winter,False,1.8178,got this for my kid. great cheap tablet. camera aren't so good but usable. apps load quick.,True
ORD441036,ID0248746968,29/10/2019,Thompson,"[('Thunder line', 2), ('Universe Note', 1), ('Toshika 750', 1)]",12130,65.44,-37.8179312,144.9934494,10,10982.44,Autumn,False,0.931,"good quality my previous lucentrola razr m's charge port had stopped working somehow. i ordered a used but good condition and it was perfect. although after a while, the charge port on this one messed up as well. i don't know if it was me, my charger, or the lucentrola razr m, but i love this phone.",True
ORD201586,ID6167266588,16/08/2019,Nickolson,"[('Alcon 10', 2), ('iStream', 2), ('pearTV', 1)]",24510,80.48,144.9645436,-37.81084,25,18462.98,Autumn,True,0.9691,"condition ok. not excellent. this phone was supposed to be in excellent condition. the pen is broken. and the silver along the sides is all dinged up and dented. but over all phone works good, and you got me to buy something else from your site because now i have to order a new pen.",True
ORD046571,ID2894990347,31/05/2019,Thompson,"[('Candle Inferno', 2), ('Alcon 10', 2), ('Olivia x460', 2), ('pearTV', 1)]",27520,74.48,-37.8223314,144.9475823,25,20714.48,Summer,False,0.7244,very nice!  i'm impressed - wish she had more to say though.,True
ORD139318,ID1458418029,12/11/2019,Thompson,"[('Candle Inferno', 1), ('iStream', 1)]",580,69.14,-37.8197416,145.0100074,10,591.14,Autumn,True,1.6927,big disappointment i just got the phone two months ago and its no working well. giving trouble charging. i am very disappointed.,False
ORD259692,ID1681675856,24/05/2019,Bakers,"[('Universe Note', 1), ('pearTV', 2), ('Olivia x460', 2)]",18520,51.28,-37.809841,144.9763289,25,13941.28,Autumn,False,1.1423,read before you buy battery drains out very fast and it didnt have headphone. only charge and phone are the accessories,False
ORD069925,ID0224761775,6/10/2019,Bakers,"[('Lucent 330S', 2), ('iAssist Line', 1), ('Olivia x460', 2), ('Thunder line', 1)]",9315,62.75,-37.8075181,144.9918088,15,7980.5,Winter,False,0.4083,"five stars works great, easy set up with verizon prepaid. great condition. thanks",False
ORD017588,ID3213655346,27/04/2019,Bakers,"[('Toshika 750', 1), ('pearTV', 1), ('iStream', 1)]",10780,57.56,-37.8094801,144.9479139,15,9220.56,Spring,False,0.3631,dont buy referbish screen stop working after 1 day.,False
ORD348075,ID2672310978,28/04/2019,Nickolson,"[('iAssist Line', 1), ('Thunder line', 1)]",4405,66.45,-37.8026079,144.9877127,15,3810.7,Winter,False,0.2631,bought 2 of them great phone. great price,True
ORD180929,ID0253027647,30/05/2019,Nickolson,"[('Candle Inferno', 2), ('iStream', 2)]",1160,53.37,-37.8242904,144.945174,15,1039.37,Winter,False,1.3039,slow slow slow slow don't buy this phone. this is super slow. you touch something and wait for 7 seconds and then the phone will respond. very bad purchase.,False
ORD093782,ID6167344533,7/03/2019,Bakers,"[('Thunder line', 1), ('iStream', 1), ('iAssist Line', 1)]",4555,88.52,-37.8148298,144.9692039,10,4188.02,Summer,True,0.4202,the best digico excellent product and delighted thank you digico for your incomparable service,True
ORD153331,ID0260906805,28/03/2019,Nickolson,"[('Olivia x460', 1), ('Lucent 330S', 2)]",3685,97.06,145.0121695,-37.8219931,25,2860.81,Spring,True,2.0005,"doesn't work and tamper seal broken i didn't even get to review this product. it did arrive on time and everything, however, i was told it would work with straight talk. it doesn't work at all even with a gsm card. very disappointed and now stuck with it. the seals were also broken and the insides were messy. don't buy it!",False
ORD064473,ID0291483922,25/05/2019,Nickolson,"[('pearTV', 2), ('Olivia x460', 1), ('iAssist Line', 1)]",21850,74.99,-37.817242,144.9523885,15,13734.49,Winter,True,0.691,five stars i love this phone its great,True
ORD136535,ID0060653733,5/12/2019,Thompson,"[('pearTV', 1), ('Universe Note', 2), ('Thunder line', 1)]",15390,82.97,-37.8127594,144.9428102,10,13933.97,Spring,False,0.3746,stopped working phone stopped working shortly after use. nothing wrong i did on my part. no water damage or physical damage. battery was broken and certain memory features,False
ORD155919,ID0452381449,19/07/2019,Thompson,"[('iStream', 1), ('Lucent 330S', 1), ('iAssist Line', 2)]",5830,68.43,-37.8250579,144.949316,25,4440.93,Winter,False,1.3927,i am happy with my cell phone i am happy with my cell phone. good quality and i love and love the white color. i recommended this cell phone. thanks digico.,True
ORD369941,ID2948774581,6/10/2019,Thompson,"[('Candle Inferno', 1), ('Thunder line', 2)]",4790,94.89,-37.8087626,144.9718879,25,3687.39,Summer,True,1.1136,works well nice item for a gift,True
ORD098180,ID5001030324,5/02/2019,Nickolson,"[('Universe Note', 2), ('Alcon 10', 2), ('Lucent 330S', 2), ('pearTV', 1)]",33570,75.94,-37.8113505,144.9528097,0,33645.94,Summer,True,0.5259,batera recib este telfono funcion bien 5 das y luego empez a tirar error en la batera hasta que dej de cargar . ahora tengo que llevarlo a servicio tcnico porque no carga .,False
ORD083500,ID0598401462,5/05/2019,Nickolson,"[('iAssist Line', 1), ('Olivia x460', 2)]",4675,77.35,-37.8148152,144.9642089,25,3583.6,Winter,True,0.6307,love pocophone better than the alcon,True
ORD255439,ID2621587191,21/04/2019,Bakers,"[('iStream', 2), ('Olivia x460', 1)]",1525,99.22,-37.8088324,145.0102526,15,1395.47,Summer,True,1.3273,everything is good we need a good battery,True
ORD351950,ID1458422297,4/09/2019,Nickolson,"[('Candle Inferno', 2), ('Alcon 10', 1), ('Lucent 330S', 1), ('Toshika 750', 2)]",14010,51.45,-37.8179387,145.00853,15,16779.45,Autumn,False,1.4661,barely 4k content and it lags a lot. not worth it. returned!,False
ORD241952,ID5002595069,24/01/2019,Bakers,"[('iStream', 1), ('pearTV', 1)]",6460,83.92,-37.8126938,144.9526134,5,6220.92,Spring,True,0.4876,"trash and waste of my time! after not even 1 month of having this phone it locked up. i thought i was receiving a ""new"" phone as listed on digico but all i got was a junk phone!",False
ORD128823,ID1445498763,6/04/2019,Nickolson,"[('iAssist Line', 1), ('Universe Note', 1)]",5675,77.36,-37.8166527,144.9834757,25,4333.61,Summer,False,1.2434,that it is sold by vets hiring vets and donating profits to vets love the phone,True
ORD126070,ID2177124622,10/08/2019,Nickolson,"[('iStream', 1), ('Thunder line', 1), ('Candle Inferno', 1), ('Toshika 750', 2)]",11400,72.46,-37.8162688,144.9563044,25,8622.46,Summer,True,0.9054,x marks the spot. works as it should. love face time,True
ORD213141,ID0247022862,29/04/2019,Bakers,"[('Toshika 750', 2), ('Universe Note', 1), ('Candle Inferno', 1), ('iStream', 2)]",11990,51.13,-37.8134076,144.9697938,25,9666.13,Winter,False,0.5778,"one star i had a problem in one week, and can't exchange!",False
ORD209626,ID1479905408,7/11/2019,Thompson,"[('Olivia x460', 1), ('Lucent 330S', 2), ('Toshika 750', 2), ('pearTV', 2)]",24945,82.02,-37.8205049,144.9574391,25,18790.77,Autumn,True,1.0861,five stars its beautiful and amazing piece.i love it,True
ORD447127,ID2296976215,13/12/2019,Thompson,"[('Alcon 10', 2), ('Lucent 330S', 2), ('Olivia x460', 1), ('Toshika 750', 1)]",25905,65.03,-37.8050873,144.959954,5,24674.78,Winter,True,1.4132,"phone did not work phone did not work, kept shutting off even with updates waste of my money.",False
ORD275233,ID0030287404,12/09/2019,Bakers,"[('Lucent 330S', 2), ('Alcon 10', 1)]",11410,80.16,-37.8073598,144.9673572,15,9778.66,Winter,True,1.2655,"so far so good got exactly what i ordered, came with the phone and a charger. arrived before expected and put a huge smile on my son's face on christmas morning. works fine with cricket wireless.",True
ORD160081,ID4787373725,9/01/2019,Bakers,"[('pearTV', 1), ('Universe Note', 1), ('Olivia x460', 1)]",10985,72.67,-37.817417,144.9675646,0,11057.67,Summer,True,0.2184,one star so so,False
ORD132409,ID6167417928,5/05/2019,Nickolson,"[('pearTV', 1), ('Olivia x460', 2), ('Lucent 330S', 1)]",9990,61.25,-37.8155614,144.9581634,25,7553.75,Spring,False,1.0273,"stolen cell phone i went to verizon today to activate my phone and was advised it is on a stolen cell phone list, so disappointed",False
ORD436484,ID0780979435,13/06/2019,Thompson,"[('Alcon 10', 2), ('Universe Note', 1), ('iStream', 1)]",23530,50.76,-37.8051,144.9493181,5,22404.26,Autumn,False,0.8659,one star the battery won't last more than 10 hours even from the first day.,False
ORD146099,ID0247012068,11/09/2019,Thompson,"[('Toshika 750', 1), ('iStream', 2)]",4620,64.65,-37.810922,144.9682307,0,4684.65,Autumn,True,0.862,"ruined by overly-aggressive power management huawei's overly-aggressive power manager kills background apps and breaks too many things. you can't navigate with google maps reliably. notifications don't work because background apps are killed. although one might be able to eventually configure to bypass, it's just too difficult to work the bugs out.",False
ORD159306,ID0777773673,21/07/2019,Thompson,"[('Candle Inferno', 1), ('iStream', 2), ('Universe Note', 1), ('pearTV', 1)]",10490,77.79,-37.805337,144.950642,25,7945.29,Autumn,False,0.875,"it has worked wonderfully so far it arrived quickly and was well packaged. i followed the directions, got some help from verizon and it was ready to go. it has worked wonderfully so far. it is a far better phone than what i had before. i have been very happy with this purchase!",True
ORD136357,ID6167344599,3/07/2019,Thompson,"[('Alcon 10', 2), ('Universe Note', 1), ('Lucent 330S', 1)]",22580,63.12,-37.811681,144.9705406,10,20385.12,Winter,False,0.7746,"simly the best! the best phone i have own. period.and i own all other top of line phone like alcon xs , huawei 20 pro , one plus 6t .",True
ORD488333,ID0578120665,14/04/2019,Nickolson,"[('Olivia x460', 1), ('Candle Inferno', 2), ('Toshika 750', 1), ('iStream', 1)]",6555,77.54,-37.8240761,144.9425475,10,5977.04,Summer,False,1.3301,five stars good,True
ORD070270,ID0579497586,24/02/2019,Thompson,"[('Olivia x460', 1), ('Lucent 330S', 2)]",3685,53.08,-37.8147867,144.9500749,10,3369.58,Summer,False,0.3539,buy it when you have an emergency phone when i put on the speaker the other person couldn't hear me.,False
ORD435806,ID0127538409,23/04/2019,Nickolson,"[('Thunder line', 2), ('iStream', 1), ('Universe Note', 1)]",7960,75.51,-37.8038083,144.9969606,25,6045.51,Winter,False,0.7054,great product - understands my accent!,True
ORD388041,ID0641030021,14/04/2019,Thompson,"[('Alcon 10', 2), ('iAssist Line', 1), ('pearTV', 2)]",32745,77.64,-37.8104498,144.9432571,10,29548.14,Autumn,False,0.4167,"beautiful screen, vibrant color, fast and best quality for the money.",True
ORD190181,ID0349920091,10/02/2019,Thompson,"[('Thunder line', 1), ('iStream', 2), ('Toshika 750', 1)]",6800,79.79,-37.8185923,145.0052383,0,6879.79,Winter,False,1.3,"awesome features / low price entrega sper rpida. el diseo es genial, compr la versin azul y tiene muy buenos detalles. el telfono funciona correctamente. muy buena relacin precio calidad. sper amigable",True
ORD319093,ID6167266644,17/05/2019,Thompson,"[('Toshika 750', 2), ('Candle Inferno', 2)]",9500,105.13,144.9632138,-37.8085511,25,7230.13,Spring,True,1.2493,five stars love it!,True
ORD141767,ID0255059534,14/07/2019,Bakers,"[('iAssist Line', 2), ('pearTV', 1), ('Universe Note', 2), ('iStream', 1)]",17810,73.14,-37.812761,144.9720093,0,17883.14,Spring,False,0.6845,quality strong phone.,False
ORD343533,ID0257503151,14/03/2019,Bakers,"[('Toshika 750', 2), ('Alcon 10', 2)]",26540,83.02,-37.799685,144.9624435,25,19988.02,Winter,True,1.9796,"great it was almost new but very disappionted when it was opened before it arrived anf headset was gone from th ebox. i did receive credit back though after i mailed digico which i really appreciate that,",True
ORD348408,ID0287629308,14/01/2019,Bakers,"[('Thunder line', 1), ('Toshika 750', 1)]",6500,77.79,-37.8048558,144.9513058,10,5927.79,Spring,True,0.9466,bought for my mom she loves the style - she's nearly 80 and refuses to use a smartphone. she's happy and that's good enough for me.,True
ORD286512,ID4733727852,7/01/2019,Thompson,"[('iAssist Line', 1), ('Thunder line', 1), ('Toshika 750', 2)]",13045,66.26,-37.8042543,144.9492043,25,9850.01,Winter,False,0.9558,does the job! love it!,True
ORD367943,ID0746427704,25/06/2019,Bakers,"[('Universe Note', 1), ('Alcon 10', 1), ('Thunder line', 2), ('iStream', 2)]",17060,79.55,-37.8167707,144.9947952,10,15433.55,Autumn,True,0.7551,hi ticket quality item a bit pricey but worth it. facial recognition works as password,False
ORD268182,ID2005895252,2/03/2019,Nickolson,"[('pearTV', 2), ('Candle Inferno', 1), ('iStream', 2), ('Toshika 750', 1)]",17670,67.76,-37.8020899,144.9659546,25,13320.26,Autumn,False,1.8643,not straight talk this phone does not work with straight talk!,False
ORD348977,ID0580530692,1/08/2019,Thompson,"[('Universe Note', 2), ('iAssist Line', 1)]",9125,68.16,-37.8009174,145.010809,15,7824.41,Autumn,False,1.7024,five stars excellent. works in venezuela very good.,True
ORD165279,ID2960404462,3/07/2019,Thompson,"[('Thunder line', 1), ('Olivia x460', 1), ('iStream', 2), ('Universe Note', 1)]",10250,63.42,-37.8185187,144.9653177,25,7750.92,Winter,False,0.3724,works with sprint. i love this phone. it works with sprint and doesn't come loaded with a bunch of rubbish apps that i cannot delete.,True
ORD067084,ID0591435609,7/12/2019,Bakers,"[('Olivia x460', 2), ('iStream', 1)]",2600,74.38,-37.8188066,144.9703017,15,2284.38,Winter,True,1.5061,five stars i'm really satisfied,True
ORD003418,ID1224869069,16/11/2019,Nickolson,"[('Thunder line', 2), ('Candle Inferno', 2), ('pearTV', 2), ('Olivia x460', 2)]",20290,58.71,-37.812989,144.9407677,10,18319.71,Winter,True,0.5553,"the phone is not what i thought it would be ... the phone is not what i thought it would be. it's more at&t then windows itself and the software is 7.8 and not windows 8. i should have read about it before buying it, but that's my fault .",False
ORD230529,ID0358732438,18/07/2019,Thompson,"[('Toshika 750', 2), ('Thunder line', 1), ('iAssist Line', 1)]",13045,79.18,-37.8191918,144.9847408,10,2284.38,Summer,False,1.3374,good i like it i liked,True
ORD454916,ID0373652147,31/03/2019,Bakers,"[('Olivia x460', 1), ('Universe Note', 1), ('Thunder line', 1), ('Lucent 330S', 2)]",8565,81.02,-37.8120228,144.9262547,25,7067.27,Autumn,True,1.8319,"excellent from ecuador looks like new, the battery is ok. i recommend it.",True
ORD467131,ID0294622375,20/02/2019,Bakers,"[('Thunder line', 2), ('Universe Note', 1), ('Alcon 10', 2), ('Toshika 750', 1)]",30030,67.26,-37.8182545,144.9669671,15,25592.76,Summer,False,0.2304,good product good product,False
ORD444667,ID0277118918,30/04/2019,Thompson,"[('Lucent 330S', 2), ('Candle Inferno', 2), ('iStream', 2)]",3620,101.9,-37.8223226,144.9334506,15,3178.9,Summer,True,1.6087,basic and good good product,True
ORD158340,ID4716795320,1/09/2019,Nickolson,"[('Toshika 750', 1), ('Candle Inferno', 1), ('Thunder line', 1)]",6930,79.33,-37.8191696,144.9522589,15,5969.83,Summer,False,0.8551,two stars this mobile is not connecting in bluetooth to other mobile and download problem and not recognizing in computer.,False
ORD209238,ID0030385741,26/02/2019,Nickolson,"[('Toshika 750', 1), ('Olivia x460', 1), ('pearTV', 2), ('Universe Note', 2)]",25065,84.86,-37.8261732,145.002466,15,21390.11,winter,False,1.9098,i love this phone i love this phone. very fast and great screen size. super responsive. makes my old s4 seem like a model a,True
ORD315955,ID0130015100,7/05/2019,Nickolson,"[('iStream', 2), ('Alcon 10', 2)]",22350,77.83,-37.8156101,144.9677952,0,22427.83,Autumn,True,0.3664,"great phone, but not so great camera for a 16mpx the phone is awesome, just a few things i didn't like. the camera is not as great, the picture quality is poor in a dark room. i liked the sound quality and the ram and rom are a okey for that price. the best thing, is the fact that it was unlocked.",True
ORD287174,ID0281390979,10/06/2019,Nickolson,"[('iAssist Line', 2), ('pearTV', 1)]",4600,83.25,-37.8126041,145.0120369,15,3993.25,Spring,False,1.5061,"good and... worth every penny. super good phone with nice cameras for it's price. runs all the games with max graphics. maybe it's a bit big, kind of difficult to hold. but with time i'll get used to it.",True
ORD209102,ID0628175326,21/08/2019,Bakers,"[('Olivia x460', 2), ('Universe Note', 2), ('Candle Inferno', 2), ('Thunder line', 2)]",14570,70.99,-37.8124708,144.9478447,25,3597.9,Winter,True,0.0718,five stars really happy with the phone the description was on point..,True
ORD401129,ID4460254041,25/03/2019,Thompson,"[('pearTV', 2), ('iAssist Line', 2)]",21260,59.71,-37.8025402,144.9456377,25,16004.71,Summer,False,1.135,was not refurbished the phone was supposed to be refurbished but it was just an old phone.,False
ORD064785,ID4305736587,8/02/2019,Thompson,"[('Candle Inferno', 1), ('Thunder line', 2), ('Universe Note', 1)]",8240,83.0,-37.8131224,145.0139936,5,7911.0,Autumn,True,1.6863,i would order it again i was really happy with his phone thanks,True
ORD067868,ID0247531546,21/06/2019,Nickolson,"[('pearTV', 2), ('Toshika 750', 1)]",16940,44.67,-37.813669,144.9469793,15,14443.67,Winter,False,1.3292,screen flickers phone works as expected except for frequent flickering problem with the screen that sometimes goes away after restarting the phone.,False
ORD225279,ID0591227425,7/12/2019,Thompson,"[('Toshika 750', 1), ('pearTV', 2)]",16940,98.16,-37.8249721,144.949029,0,17038.16,Summer,True,1.3799,great purchase this phone came in beautiful condition and so far works perfectly. glad i decided to purchase here.,True
ORD111295,ID3240572175,15/05/2019,Thompson,"[('Thunder line', 1), ('iAssist Line', 1), ('Alcon 10', 2), ('Candle Inferno', 2)]",23165,101.89,-37.8057114,144.9309004,10,20950.39,Summer,True,1.6194,i am loving it so far. no issues whatsoever ... i am loving it so far. no issues whatsoever. the only thing is i wished it came with some headphones.,True
ORD415154,ID3790886018,5/09/2019,Nickolson,"[('pearTV', 2), ('Lucent 330S', 2), ('Toshika 750', 1), ('Olivia x460', 1)]",20625,82.16,-37.7992786,144.9367969,25,15550.91,Autumn,True,1.7434,"very nice cost performance. pros: very very cheap. good cost performance(under the $100 and nougat 7.1.1). long battery life. dual sim slot and sd card slot. cons: ram 1gb(slow working). storage 8gb, too small. no fingerprints lock/unlock. no waterproof. cheap body quality. legacy design. no type c.",True
ORD111040,ID6167285773,26/06/2019,Thompson,"[('Toshika 750', 1), ('Universe Note', 2), ('pearTV', 2), ('Olivia x460', 2)]",26290,66.85,-37.8101926,144.9613829,0,26356.85,Winter,False,1.0382,vendor's supplied charging cable a dud love the phone and many others have already reviewed the note 5. ino terrific shape. but the vendor's supplied charging cable and plug do not work.,True
ORD068044,ID3313210943,28/07/2019,Nickolson,"[('Universe Note', 2), ('iStream', 2), ('Alcon 10', 2), ('Lucent 330S', 2)]",27560,75.19,-37.8185184,144.9670945,25,20745.19,Spring,True,0.2162,"good phone... obviously, this isn't a newer pixel but it's a good phone.",True
ORD457089,ID4716795174,24/06/2019,Nickolson,"[('Universe Note', 1), ('pearTV', 1)]",9760,72.57,-37.8188287,144.9532795,0,9832.57,Summer,True,0.8762,four stars good,True
ORD156788,ID6206878685,21/10/2019,Thompson,"[('Lucent 330S', 2), ('iStream', 2), ('Candle Inferno', 2), ('pearTV', 1)]",15970,63.79,-37.824845,144.9576466,10,14436.79,Summer,False,1.2569,i habe the thunder and i bought this one fort my son's room but it's not as user friendly. i wish i would've just bought the other one.,False
ORD304686,ID0589450912,21/01/2019,Thompson,"[('Alcon 10', 2), ('pearTV', 1)]",24210,79.53,-37.8100334,144.9726224,25,18237.03,Autumn,True,0.9906,"it works great and isn't a rip off it works great and isn't a rip off. it had a scratch on the phone though - i guess that's what to expect from a ""used"" item",False
ORD120755,ID3199635546,6/10/2019,Thompson,"[('Olivia x460', 1), ('Thunder line', 1), ('Toshika 750', 1), ('Lucent 330S', 2)]",10185,82.41,-37.8031277,144.9730466,5,9758.16,Winter,True,0.6432,five stars great!!!,True
ORD174313,ID4516260664,21/10/2019,Nickolson,"[('Toshika 750', 1), ('Olivia x460', 1)]",5545,88.49,-37.8087321,144.9473669,25,4247.24,autumn,True,0.4395,its just a brand new phone i can say its one of the best phone it really look like new though no headphone but it came with charger  and its pretty new no scratches whatsoever thanks to the seller o recommend this seller for the best phone however.....,True
ORD372338,ID0709963112,20/08/2019,Thompson,"[('Thunder line', 1), ('Lucent 330S', 2), ('Universe Note', 1), ('Alcon 10', 2)]",25990,90.5,-37.8160747,144.9338083,15,22182.0,Spring,True,1.2261,"great hardware, but software / firmware sucks still on android 7.0 (sep 01 2017). completely outdated firmware, a lot of bloatware on device. very unfortunate upgrade policy. great hardware, but software / firmware sucks. never again olivia, just very much behind.",False
ORD418640,ID0145261598,10/02/2019,Thompson,"[('Lucent 330S', 1), ('iAssist Line', 1)]",3455,49.95,-37.8152449,144.9627259,5,3332.2,Autumn,False,0.7066,better to buy direct then through here. terrible phone. was advertised as a tmobile phone but the imei shows it belongs to verizon. the calls drops and the camera freezes frequently.,False
ORD142368,ID3146808096,9/01/2019,Nickolson,"[('Universe Note', 1), ('pearTV', 1)]",9760,65.09,-37.8106572,144.9852939,15,8361.09,Winter,False,0.8771,ezceed the expextative like displayed,True
ORD236545,ID2948774549,2/01/2019,Bakers,"[('Alcon 10', 1), ('iAssist Line', 1), ('Thunder line', 1)]",13355,63.97,-37.8080795,144.9692773,5,12751.22,Summer,False,1.1708,one star worst phone,False
ORD021921,ID3306876671,15/09/2019,Nickolson,"[('Alcon 10', 1), ('iAssist Line', 2), ('pearTV', 1), ('Toshika 750', 1)]",24030,75.74,-37.8096911,144.9555584,0,24105.74,Spring,False,0.8171,i would recommend! looks and function as new. 1 trip to the sprint store and in 15 minutes i was using my new bore 5. i would recommend!,True
ORD269661,ID2183273514,23/06/2019,Nickolson,"[('Alcon 10', 2), ('Candle Inferno', 1)]",18330,79.68,144.9629188,-37.8073743,15,15660.18,Spring,False,1.3785,five stars very nice cellphone.,True
ORD443054,ID0297178813,19/01/2019,Nickolson,"[('iAssist Line', 2), ('Thunder line', 1), ('iStream', 2)]",6930,81.66,144.9545468,-37.82255,0,7011.66,Autumn,True,1.2811,... you can tell it's used but the screen is perfect and that's the most important thing i keep mine ... came fast works flawlessly you can tell it's used but the screen is perfect and that's the most important thing i keep mine in a case anyway nice,True
ORD248922,ID1404218659,2/11/2019,Thompson,"[('pearTV', 1), ('Olivia x460', 2)]",8760,68.45,-37.8016497,144.9874269,0,8828.45,Autumn,False,1.1552,love it i just received my phone and i like it alot. its fast and pretty and reminds me of the universe s3,True
ORD218059,ID0664378467,8/03/2019,Nickolson,"[('Candle Inferno', 1), ('Alcon 10', 2), ('iAssist Line', 1), ('Olivia x460', 1)]",21780,53.17,-37.8201538,144.9669628,5,20744.17,Summer,False,0.2862,"battery sucks the battery on this phone is a joke, i even paid for a replacement battery and the phone still drained it without remorse. i don't recommend this phone to anyone who needs their battery.",False
ORD395957,ID3215191989,29/11/2019,Nickolson,"[('Candle Inferno', 2), ('Universe Note', 2), ('Thunder line', 2)]",12120,65.18,-37.8056528,144.9510829,0,12185.18,Winter,False,0.8575,five stars fast shipping love this product no dropped calls and can clearly hear batteries last long time with out charging,True
ORD234025,ID1459890791,3/08/2019,Thompson,"[('Candle Inferno', 2), ('Olivia x460', 2)]",5480,83.21,-37.8197643,145.0127968,5,3227.71,Summer,False,1.889,"worth the money this phone is very good for what it cost, i had an alcon and i changed it for this one i don't regret.",True
ORD102589,ID0547568767,4/07/2019,Nickolson,"[('pearTV', 1), ('iStream', 1)]",6460,72.27,-37.8125353,144.9865756,10,5886.27,summer,False,0.8121,five stars great phone,True
ORD155212,ID4313862260,1/08/2019,Nickolson,"[('iStream', 1), ('Candle Inferno', 1), ('Olivia x460', 1)]",1805,95.01,-37.8181916,144.9922652,5,1809.76,Summer,True,0.9489,"very good phone. my father had a similar phone previous ... very good phone. my father had a similar phone previous to this one, so far likes this one just as much.",True
ORD003734,ID0547568858,3/06/2019,Bakers,"[('Universe Note', 1), ('Toshika 750', 2), ('pearTV', 2), ('iAssist Line', 2)]",29160,74.99,-37.8162049,144.9886557,5,27776.99,Summer,False,0.9012,can't beat the price this phone worked great for my son untill he upgraded. good sound/signal/basic phone for 9.99. very satisfied with digico service and prices.,True
ORD260722,ID3218226996,7/11/2019,Thompson,"[('Universe Note', 1), ('Candle Inferno', 1), ('Lucent 330S', 1)]",5110,64.05,-37.807841,144.9456925,25,7612.36,Autumn,False,0.5514,"i bought a refurbished one i bought a refurbished phone from the seller edge cellular, and it wasn't stolen or broken or anything like that. it works great. it looks new, the battery life is good, and i've had zero issues.",True
ORD312048,ID1449496093,30/11/2019,Thompson,"[('pearTV', 2), ('iStream', 1), ('Candle Inferno', 1)]",13200,106.41,-37.8239545,144.984625,5,12646.41,Spring,True,1.4536,great product have had it about a month now. everything has been great.,True
ORD421710,ID2641765496,28/04/2019,Bakers,"[('Toshika 750', 2), ('Thunder line', 2), ('pearTV', 2)]",25620,81.9,-37.8226138,144.9583674,0,25701.9,Summer,True,1.0804,phone sucks used brand new g7 for about 2 days. was in the middle of something when it complete stopped responding to touch. lucentrla wouldn't back their product.,False
ORD485263,ID1449431625,16/02/2019,Thompson,"[('Olivia x460', 1), ('Candle Inferno', 2), ('Universe Note', 1)]",5535,77.63,-37.813381,144.9738693,25,4228.88,Autumn,True,0.6936,easy to transfer my stuff from my old candle into this new one. love the price and how easy it is to use. great buy.,True
ORD321277,ID2213981047,4/04/2019,Bakers,"[('Candle Inferno', 1), ('Lucent 330S', 1), ('pearTV', 2), ('Toshika 750', 2)]",22920,69.15,-37.7989577,144.9842546,5,21843.15,Winter,False,1.5627,awesome phone! phone is in mint condition and works great! battery lasts a long time and it is a super fast without any bloat ware. i am very happy i went with the google pixel 2 xl over the alcon! i would also recommend this seller to all interested.,True
ORD146752,ID0702353899,30/01/2019,Nickolson,"[('Candle Inferno', 1), ('iStream', 2)]",730,93.16,144.943339,-37.8061542,25,640.66,Summer,True,0.7964,bought for someone not tech savvy and he's done great,True
ORD487308,ID0370750304,30/07/2019,Thompson,"[('Lucent 330S', 2), ('iAssist Line', 2), ('iStream', 2), ('Thunder line', 2)]",11570,65.67,-37.8140393,144.9856987,0,11635.67,Winter,False,0.9516,i like the size of the device as well as the expandable storage,True
ORD139929,ID3144992689,29/10/2019,Thompson,"[('Toshika 750', 2), ('Thunder line', 1), ('Universe Note', 1), ('Candle Inferno', 1)]",14700,73.52,-37.814464,144.9854415,10,13303.52,summer,False,0.9943,love it! fingerprint reader kinda slow still cool to have it. the display is great value for the price,True
ORD010732,ID0777776726,11/10/2019,Thompson,"[('Thunder line', 1), ('Lucent 330S', 1)]",3410,64.1,-37.8056214,144.9505783,0,3474.1,Winter,True,0.8435,"five stars very good price, perfect match for my verizon account, with no questions asked.good condition, fast delivery",True
ORD032678,ID2177124614,25/04/2019,Nickolson,"[('iStream', 1), ('Universe Note', 2), ('Candle Inferno', 2), ('Thunder line', 2)]",12270,65.53,-37.8161599,144.9566912,25,9268.03,Winter,False,0.931,great phone! easy setup. works great. super fast charging.,False
ORD475071,ID0091971018,15/06/2019,Thompson,"[('iAssist Line', 2), ('Alcon 10', 2), ('Thunder line', 1)]",24530,60.33,-37.8176462,144.9486878,10,22137.33,spring,True,0.5716,i do not recommend this ipad there is no sims card in this. ipad. i assumed the sims card was always built in.....wrong. i think the information and description for this produce is misleading. it should clearly state. no sims card so customer knows what the product is before buying. i would not bought it had i known. betty m,False
ORD487719,ID2666106696,22/08/2019,Nickolson,"[('Toshika 750', 1), ('pearTV', 1), ('Alcon 10', 2), ('Universe Note', 2)]",35430,51.43,-37.8082166,144.959927,0,35481.43,Winter,False,1.2348,does not work in the us the phone was not compatible with my verizon wireless contract. doesn't seem to work with verizon's us network. had to return the phone and purchase a different one,False
ORD495996,ID1964021884,17/03/2019,Thompson,"[('Alcon 10', 1), ('Toshika 750', 1), ('Universe Note', 1), ('Olivia x460', 1)]",17945,75.94,-37.8182517,144.9651695,15,15329.19,Autumn,True,0.3872,five stars i wish it had a front camera,False
ORD115780,ID1985557923,14/10/2019,Nickolson,"[('Olivia x460', 1), ('Candle Inferno', 2), ('iStream', 1), ('Toshika 750', 1)]",5070,75.13,-37.8107637,144.9672597,5,6302.38,Summer,False,0.8947,"other than that a great phone. the charger broke a week into using it and the phone has one small, almost unnoticeable scratch on the lower right corner. other than that a great phone.",True
ORD350020,ID5402876141,30/06/2019,Bakers,"[('Alcon 10', 2), ('Olivia x460', 1), ('iAssist Line', 2), ('pearTV', 1)]",29885,71.73,-37.8197781,144.9767491,15,25473.98,Summer,False,0.6465,great i simply love it,True
ORD167784,ID2174963258,21/05/2019,Nickolson,"[('Lucent 330S', 1), ('Thunder line', 1), ('pearTV', 1), ('iStream', 2)]",16040,100.65,-37.8172872,144.9533263,5,9619.65,Spring,True,0.7527,please help. the phone is shuting down frequently without any action from me. could you please could indicate if a can have techinical support for the 6s in brazil?,True
ORD448134,ID0283334269,5/08/2019,Thompson,"[('Alcon 10', 2), ('Candle Inferno', 2), ('Olivia x460', 2)]",21210,66.12,-37.8017654,144.9543239,15,18094.62,spring,True,1.3717,phones sold here are not unlocked!!! phones sold here are not unlocked!!! be aware before you order it may it may not work with your carrier !!! in my case i have a sprint line and the phone i received was with another carrier . i had to return it.,False
ORD098755,ID6282174091,22/11/2019,Nickolson,"[('iAssist Line', 1), ('Thunder line', 1), ('Toshika 750', 1), ('iStream', 2)]",9025,78.43,-37.8232786,144.9784947,10,8200.93,Spring,False,0.9436,"used for internet surfing . does a great job, it's great!",True
ORD453937,ID6167489495,4/06/2019,Thompson,"[('iStream', 2), ('Toshika 750', 2)]",8940,100.29,-37.8187933,144.9626141,15,7699.29,Spring,True,0.6104,good phone. love this phone. exactly what i wanted. no problems and came quickly. my son bought one but it didn't work. sent it back had got one from the cellular company we use. s8 was available but this one had all the features we wanted.,True
ORD158322,ID6024429133,18/12/2019,Nickolson,"[('Toshika 750', 1), ('pearTV', 1), ('Universe Note', 1)]",14080,47.72,-37.8140189,144.9443017,10,12719.72,Winter,False,0.2858,i hate it i think this guy is a swindler.he sent me a charger that wasn't the one for this cellphone and headphones differents too. he did not say that all that stuff were cheap.,False
ORD400173,ID0267315661,12/11/2019,Nickolson,"[('Toshika 750', 1), ('Alcon 10', 1), ('Thunder line', 2), ('pearTV', 1)]",23940,83.2,-37.8227448,144.9717489,5,22826.2,Spring,False,0.5007,one star i wasn't able to use it because it wasn't campatble with strain get talk.,False
ORD232470,ID0709968570,18/07/2019,Thompson,"[('Candle Inferno', 1), ('Alcon 10', 2), ('pearTV', 2)]",30950,80.97,-37.8134207,144.9358374,0,31030.97,Autumn,True,0.9912,reasonable price and good quality product like this cellphone and mostly use when we are away from home phone.,True
ORD109000,ID0591317276,7/10/2019,Nickolson,"[('iAssist Line', 2), ('Alcon 10', 2), ('Olivia x460', 2), ('Candle Inferno', 1)]",25230,64.95,-37.8254774,144.9569897,15,21510.45,Winter,True,1.3442,manden lo que es en la foto de la descripcin no es el telfono que dicen en la descripcin me mandaron otro telefono,False
ORD392354,ID5402876171,16/04/2019,Bakers,"[('pearTV', 1), ('Olivia x460', 2), ('Lucent 330S', 1), ('Toshika 750', 2)]",18630,64.88,-37.8206145,144.9772668,25,14037.38,Autumn,False,0.7148,"great little phone for the price. this was for my husband. it is somewhat small, but the quality if okay. a good basic phone or back up phone. had no problems activating it with verizon, and it has worked well since.",True
ORD378227,ID0266739054,14/12/2019,Thompson,"[('Toshika 750', 2), ('iAssist Line', 1)]",10865,63.46,144.9757745,-37.8185363,0,10928.46,Autumn,True,0.5473,"not oem unlocked falsely advertised, this is a verizon phone with a locked bootloader. negative one million stars, do not pass go, do not collect my $300.",False
ORD443247,ID0233262815,4/12/2019,Nickolson,"[('pearTV', 1), ('Olivia x460', 2), ('iAssist Line', 2)]",13210,71.02,-37.7984572,144.9796105,25,9978.52,Winter,False,1.8809,five stars this phone is awesome,True
ORD240778,ID2776396939,7/12/2019,Bakers,"[('pearTV', 2), ('Olivia x460', 1), ('Lucent 330S', 2), ('Candle Inferno', 2)]",17165,92.49,-37.8127792,144.9640801,25,12966.24,Winter,True,0.8066,"an outstanding piece of technology, i use it everyday for information, scheduling and general information.  awesome digico, keep improving with ai.",True
ORD130172,ID0777710193,18/06/2019,Thompson,"[('Candle Inferno', 1), ('pearTV', 2)]",16070,95.87,-37.805742,144.9552312,10,14558.87,Summer,True,1.0539,"excellent purchase everything is basically perfect i really have not bad to say about it i may update if something goes wrong but it doesnt look that way, super happy",True
ORD167433,ID0579501932,13/09/2019,Thompson,"[('Candle Inferno', 2), ('iAssist Line', 2), ('Thunder line', 2)]",9670,53.0,-37.8139953,144.9492407,5,9239.5,Summer,False,0.2411,"one star bad product of this selle, i buy two and bought bad..",False
ORD366219,ID0038779052,7/06/2019,Nickolson,"[('Candle Inferno', 2), ('Toshika 750', 2), ('Universe Note', 1), ('iStream', 1)]",13100,80.2,-37.7998315,144.9929005,15,11215.2,Spring,False,1.1499,"xp 3310 3g had xp in the past, and this phone works great on at&t. small size, charge lasts along time, rugged.",True
ORD015900,ID0579384316,28/06/2019,Bakers,"[('iStream', 2), ('Universe Note', 1), ('Candle Inferno', 2), ('Thunder line', 1)]",6790,68.14,-37.8252475,144.9447974,0,6858.14,Winter,False,1.4139,five stars the phone was great did not have any problems with it thanks,True
ORD341962,ID2473002363,29/08/2019,Bakers,"[('Universe Note', 1), ('iStream', 1), ('Thunder line', 1), ('Candle Inferno', 2)]",6640,65.41,-37.8042179,145.0025721,25,5045.41,Winter,False,0.9113,"more than great this phone is great. simple to use, great battery life, always has a strong signal and at&t has a great pay-as-you go plan. i'm happy.",True
ORD139800,ID1985557921,20/11/2019,Bakers,"[('pearTV', 1), ('Olivia x460', 2), ('Toshika 750', 2), ('iAssist Line', 2)]",21850,68.59,-37.8157232,144.9695426,10,19733.59,Summer,False,0.3197,love it. my new everyday driver.,True
ORD492291,ID1449431350,9/08/2019,Bakers,"[('Thunder line', 2), ('Olivia x460', 1), ('Alcon 10', 2), ('Toshika 750', 2)]",28625,100.54,-37.8134507,144.9740083,15,24431.79,Spring,True,0.6939,above expectations this note 3 used but appeared practically brand new. it exceeded my expectations and at the best price i found!,True
ORD223037,ID0266738793,17/01/2019,Nickolson,"[('iStream', 2), ('Olivia x460', 2)]",2750,74.53,-37.8206448,144.9806628,25,2137.03,Summer,False,1.0034,"estado del producto excelente, great, 100 % recomendado.",True
ORD062251,ID0572039368,2/02/2019,Bakers,"[('iStream', 1), ('iAssist Line', 2)]",4600,75.9,144.9518701,-37.806604,5,4445.9,Winter,True,0.7967,worth the money one year going strong no problems,True
ORD293544,ID6167266601,22/01/2019,Bakers,"[('iStream', 1), ('Candle Inferno', 1), ('Thunder line', 1)]",2760,80.95,-37.807367,144.9629436,25,2150.95,Winter,True,1.3783,"easy to set up, great picture love it! keeps my kids entertained and they love it also ....it was a gift.",True
ORD268241,ID6167265880,15/02/2019,Nickolson,"[('Candle Inferno', 2), ('iStream', 2), ('Universe Note', 1)]",4610,64.23,-37.8134589,144.9657287,10,4213.23,Winter,False,1.6882,great purchase. could not tell from new and the battery lasts for days,True
ORD445655,ID2189162945,22/12/2019,Nickolson,"[('Olivia x460', 1), ('iAssist Line', 2), ('Lucent 330S', 2), ('Toshika 750', 1)]",12455,81.42,-37.8156687,144.9582129,0,12536.42,Autumn,True,1.0352,five stars satisfy,True
ORD294600,ID0711333607,31/08/2019,Nickolson,"[('Toshika 750', 1), ('Candle Inferno', 2), ('iStream', 2)]",5480,78.79,-37.8065032,144.9559679,5,5284.79,Spring,False,1.0413,great phone i bought this phone from a boost store.....it can be a bit slow at times......but over all it works just fine....the phone and the service are more than worth the 50 a month i have to spend.,True
ORD187520,ID0492939908,11/01/2019,Nickolson,"[('pearTV', 2), ('Candle Inferno', 1), ('Thunder line', 2)]",17410,84.89,-37.7999799,145.0138091,10,15753.89,Spring,False,1.9781,im. so. happy i. likit,True
ORD042825,ID4315827370,9/02/2019,Thompson,"[('iAssist Line', 1), ('Universe Note', 1)]",5675,85.3,-37.814063,145.0000189,15,4909.05,Spring,True,0.6182,"phone seem to have some water damage. the sim ... phone seem to have some water damage. the sim card kept reading that it was not in when it was inserted in the phone. therefore, we had to use the phone without a sim card which caused the data to not work properly without wifi being on 24/7.",False
ORD002212,ID3790949329,29/10/2019,Bakers,"[('Candle Inferno', 1), ('pearTV', 2), ('Olivia x460', 2)]",15500,77.32,-37.8008942,144.910992,5,14802.32,Winter,True,3.4332,one star phone stoped working,False
ORD144932,ID2967053356,5/01/2019,Thompson,"[('pearTV', 2), ('Lucent 330S', 1)]",13850,59.04,-37.807418,144.9989152,10,12524.04,Winter,False,0.4328,"bad phone... it was in pristine condition though arrived dead, couldnt get it to work. phone was in great condition though cosmetically.",False
ORD076039,ID6167289304,24/07/2019,Thompson,"[('Alcon 10', 2), ('pearTV', 2)]",30520,50.7,-37.8080847,144.9685775,5,29044.7,Winter,False,1.856,"defective. completely worthless. it doesn't work. it came with a single sim tray, so when i put in my sim it gave the error ""sim 2 not allowed"". so i purchased another dual sim tray and tried it in sim slot 1... same error. purchased a new sim card from my carrier, same error. the product doesn't work.",False
ORD215350,ID0033238508,5/01/2019,Nickolson,"[('Olivia x460', 2), ('Universe Note', 2), ('Lucent 330S', 2), ('pearTV', 1)]",10310,109.3,-37.8009468,144.9685286,0,18229.3,Spring,True,1.9666,love it!!! love love love the phone. battery life is not too great but it's still an awesome phone,True
ORD210915,ID6167357854,4/07/2019,Thompson,"[('Candle Inferno', 1), ('Universe Note', 2)]",7330,96.39,-37.8094745,144.9720174,15,6326.89,Summer,True,1.0382,five stars excellent no regrets works fine in the bahamas where i live,True
ORD208395,ID0847528076,19/09/2019,Thompson,"[('pearTV', 2), ('Thunder line', 1), ('iAssist Line', 2), ('Olivia x460', 1)]",20475,64.48,-37.823695,144.9672159,25,15420.73,Autumn,True,0.6037,"reboot, dead the phone keeps reboot itself since i bought it, and it's completely dead after one year of use.",False
ORD160317,ID0746340925,30/08/2019,Nickolson,"[('Toshika 750', 1), ('Candle Inferno', 2), ('Olivia x460', 2), ('Universe Note', 1)]",11080,95.84,-37.8082486,144.99485,0,11175.84,Spring,False,0.1974,very nice todo perfecto!!! very nice,True
ORD276293,ID1668523155,12/10/2019,Thompson,"[('Olivia x460', 1), ('pearTV', 1), ('iStream', 1), ('Alcon 10', 2)]",25585,77.39,-37.8134241,144.9444378,10,23103.89,Autumn,False,0.246,great phone excellent,True
ORD458743,ID0202736643,21/11/2019,Thompson,"[('iStream', 2), ('Olivia x460', 1), ('Alcon 10', 1), ('Lucent 330S', 2)]",12935,98.4,-37.8053022,144.9348055,25,9799.65,Summer,True,1.3552,five stars phone has preformed good so far only had it 3 weeks,True
ORD331115,ID4847645685,12/03/2019,Thompson,"[('iStream', 2), ('Lucent 330S', 1), ('Olivia x460', 1), ('Thunder line', 2)]",5675,79.54,-37.8165392,145.0089739,25,5415.79,Summer,False,1.411,works as expected. packaging was good. came with everything inbox as advertised.,True
ORD287636,ID0248746933,12/09/2019,Nickolson,"[('iAssist Line', 1), ('Alcon 10', 2)]",20125,65.02,-37.8234562,144.9949336,0,20190.02,Summer,False,1.4986,"phone just got cut off because it was stolen, ... phone just got cut off because it was stolen, thats what t mobile rep said. smh i cant use it no more",False
ORD400303,ID0638049965,31/01/2019,Thompson,"[('iStream', 1), ('Thunder line', 2), ('Alcon 10', 1), ('Toshika 750', 2)]",14375,62.77,-37.8185335,144.9664304,5,13719.02,Winter,False,0.2745,five stars works great,True
ORD307446,ID3215192042,1/01/2019,Nickolson,"[('Alcon 10', 1), ('Candle Inferno', 1), ('pearTV', 1), ('Lucent 330S', 2)]",18150,73.55,-37.808744,144.9483529,25,13686.05,Summer,True,0.4517,"they put different color i order black, and when i open the box was blue",False
ORD081054,ID0370242305,8/11/2019,Bakers,"[('Toshika 750', 2), ('Universe Note', 2), ('Candle Inferno', 1)]",15970,87.52,144.9724648,-37.7997434,15,13662.02,Spring,False,2.1141,contento perfecto me funciono en honduras con la compaia claro y lo utilice para viajes y no me ha fallado,True
ORD371523,ID4740821316,4/08/2019,Bakers,"[('Alcon 10', 2), ('Universe Note', 2), ('pearTV', 2), ('Thunder line', 1)]",39600,64.15,-37.8034706,144.9497766,0,3625.66,Winter,True,1.0517,0.5 worst phone,False
ORD457793,ID0259616744,29/12/2019,Thompson,"[('iAssist Line', 1), ('Olivia x460', 1), ('Lucent 330S', 2)]",5910,63.87,-37.8086002,144.9520474,0,5973.87,Autumn,False,0.6303,awesome phone love the phone and all the olivia features. was comparable with cricket.,True
ORD352666,ID4451156236,7/09/2019,Thompson,"[('Lucent 330S', 1), ('iAssist Line', 1), ('Thunder line', 1)]",5635,89.09,-37.8173621,144.9658409,10,5160.59,Summer,True,0.3539,"i love, love, love my new phone. i love, love, love my new phone. buying used and paying half the cost was a great idea! it appears brand new and works like it is brand new! i love the gold color and the size of this ""plus"" phone.",True
ORD049247,ID2383211204,11/10/2019,Thompson,"[('Thunder line', 2), ('iAssist Line', 1), ('Candle Inferno', 1), ('Toshika 750', 1)]",11335,102.29,-37.8095778,144.963772,25,8603.54,Spring,True,1.1251,this is the fastest booting tablet i have come across. the speed at which i can access sites is really amazing.,True
ORD270306,ID6131956011,11/06/2019,Nickolson,"[('Alcon 10', 1), ('Lucent 330S', 1), ('iAssist Line', 1)]",12405,78.3,-37.8252459,144.9806127,10,11242.8,Winter,True,1.2224,good purchase and would recommend vendor. olivia universe s8 phone arrived sooner than stated. looks and works like new. i would buy from them again. i can't comment on fingerprint or facial recognition since i don't use them.,True
ORD095673,ID2165149751,25/03/2019,Thompson,"[('Thunder line', 2), ('iAssist Line', 2), ('pearTV', 2), ('iStream', 1)]",7690,63.0,-37.8181438,144.9648496,0,21643.0,Autumn,False,0.4165,i loved everything about this item. quick response time and very sensitive to me speaking from the other end of the house.,True
ORD036511,ID0561538943,4/12/2019,Nickolson,"[('Toshika 750', 1), ('Thunder line', 2)]",8680,69.61,-37.7974511,145.0033132,5,8315.61,Winter,False,1.5669,smooth phone need more time to make a real judgment ... smooth phone need more time to make a real judgment but my first 4 days with this phone is great,True
ORD300126,ID0846546260,31/08/2019,Bakers,"[('Lucent 330S', 2), ('iAssist Line', 2), ('Alcon 10', 2), ('Thunder line', 1)]",26990,85.73,-37.8199519,144.9685132,5,25726.23,Summer,True,0.1765,five stars excellent,False
ORD327124,ID0571731102,1/12/2019,Thompson,"[('Thunder line', 1), ('Toshika 750', 1), ('iStream', 1), ('Lucent 330S', 2)]",9110,67.38,-37.8241345,144.943471,10,8266.38,Winter,False,1.3145,es confiable el producto es autntico el producto esta genial,False
ORD400492,ID6167278772,13/02/2019,Thompson,"[('Lucent 330S', 1), ('Universe Note', 2), ('Candle Inferno', 2)]",8990,68.78,-37.8132706,144.9515284,0,9058.78,Summer,False,0.3978,i love it its awesome!!!,True
ORD396768,ID0267349632,17/12/2019,Thompson,"[('iAssist Line', 1), ('Alcon 10', 2), ('Candle Inferno', 1)]",20555,78.05,-37.8230779,144.9767343,5,19605.3,Spring,True,0.805,four stars wonderful product family member have this phone and she loves it.,True
ORD309467,ID0581703514,3/09/2019,Thompson,"[('Lucent 330S', 1), ('Alcon 10', 1)]",10180,83.07,144.9277884,-37.8061444,5,9754.07,Winter,True,1.8448,great phone bad price. this was better priced at 499. 699 is asking to much for a cell phone without a lease or contract.,True
ORD307982,ID0634783947,10/05/2019,Bakers,"[('Universe Note', 2), ('Lucent 330S', 2), ('Thunder line', 1), ('iStream', 1)]",11735,50.3,-37.8126336,144.937464,0,11785.3,Autumn,False,0.8447,wifi keep dropping out wifi keep dropping out,False
ORD350330,ID0638049968,10/10/2019,Bakers,"[('Alcon 10', 1), ('Candle Inferno', 2), ('Thunder line', 1)]",11990,72.61,-37.8185738,144.9662748,15,10264.11,Spring,False,0.2881,three stars good,True
ORD307976,ID0581731647,11/02/2019,Thompson,"[('Alcon 10', 1), ('Lucent 330S', 2), ('Universe Note', 1), ('iAssist Line', 1)]",17085,54.6,-37.8047016,144.9269198,5,16285.35,Autumn,True,1.9818,not the phone advertised. advertised as 6gb version. when it arrived box said 4gb version. and the stickers are a little dubious. one olivia sticker over the other.,False
ORD281836,ID0560985149,22/01/2019,Thompson,"[('Universe Note', 1), ('Toshika 750', 1), ('iStream', 1)]",7920,99.2,-37.8163977,144.9459686,25,6039.2,Spring,True,0.4257,"didn't work with verizon i bought this, and i cant get it to work with verizon sim card. i really like the phone but it didn't work with verizon.",True
ORD370260,ID1668523518,6/12/2019,Nickolson,"[('Olivia x460', 1), ('Universe Note', 2)]",8125,66.75,-37.8240972,144.9486132,0,8191.75,Winter,True,1.2789,not happy with purchase i was not happy with this purchase,False
ORD452240,ID0248746700,29/07/2019,Nickolson,"[('iStream', 1), ('iAssist Line', 2), ('Universe Note', 1), ('Candle Inferno', 1)]",17280,67.1,-37.8120691,144.9956889,15,14755.1,Summer,False,0.2342,five stars grate phone love it,True
ORD348417,ID2189161536,29/01/2019,Bakers,"[('pearTV', 2), ('Candle Inferno', 2)]",13480,79.79,-37.8176132,144.9591096,0,13559.79,Autumn,False,0.9247,five stars great product at a great price.,True
ORD271947,ID2277912688,29/07/2019,Bakers,"[('Candle Inferno', 1), ('iStream', 2)]",730,98.28,-37.8230238,144.9400641,10,755.28,Summer,False,1.3065,awesome!! great phone no regrets,True
ORD391429,ID3215192008,27/12/2019,Bakers,"[('iAssist Line', 1), ('Toshika 750', 1), ('Candle Inferno', 1), ('Lucent 330S', 1)]",8205,47.27,-37.8074516,144.9501892,5,7842.02,Winter,False,0.6428,returned returned.,True
ORD135397,ID0364329206,10/12/2019,Nickolson,"[('Toshika 750', 2), ('Candle Inferno', 1), ('iStream', 1)]",9220,81.78,-37.8015178,144.960204,10,8379.78,Summer,False,1.696,best cell out there. better than the most expensive alcon hands down,True
ORD499510,ID0448076957,26/08/2019,Thompson,"[('Toshika 750', 2), ('Alcon 10', 1), ('Thunder line', 1)]",19770,86.47,-37.7994811,144.9740965,10,17879.47,Summer,False,2.1649,five stars perfect,True
ORD471765,ID0035285653,9/01/2019,Nickolson,"[('iStream', 2), ('Universe Note', 2)]",7200,64.94,-37.8077563,144.9546505,5,6904.94,Winter,False,0.8626,good deal really good for the price. i have no major complaints associated with the function of this phone.,True
ORD215238,ID0992113568,5/06/2019,Nickolson,"[('Thunder line', 1), ('iStream', 2), ('iAssist Line', 2), ('Alcon 10', 1)]",15880,74.21,-37.8209249,144.9681901,5,15160.21,summer,True,0.2856,good good,True
ORD338662,ID0774566816,30/05/2019,Nickolson,"[('iStream', 1), ('Universe Note', 1), ('Candle Inferno', 2), ('Alcon 10', 1)]",13410,52.54,-37.805888,144.9561775,5,12792.04,Autumn,False,1.101,find a different phone it's awful,False
ORD277499,ID4398346297,25/03/2019,Bakers,"[('Candle Inferno', 1), ('pearTV', 1), ('iStream', 1)]",6890,63.88,-37.8193972,144.9652241,0,6953.88,Autumn,False,0.3908,pretty good phobw athens pricing is amazing. i love this product because it lasts me the whole day and i am always on my phone checking for stocks. the only con about this product is not that good. definitely recommend this project,True
ORD477855,ID4655129062,11/12/2019,Nickolson,"[('iAssist Line', 1), ('Thunder line', 2), ('Alcon 10', 1), ('Universe Note', 1)]",18985,52.26,-37.8096634,144.9475724,10,17138.76,Summer,False,0.338,invalid imei phone sold by zbfatima contains an invalid imei and is not accepted by olivia,False
ORD446914,ID0340367480,4/03/2019,Nickolson,"[('Toshika 750', 2), ('Universe Note', 2)]",15540,65.65,-37.8178794,144.9929848,25,11720.65,Winter,False,0.8995,four stars i loved the near stock android experience,True
ORD266471,ID0554206047,1/02/2019,Nickolson,"[('Alcon 10', 1), ('iStream', 2), ('iAssist Line', 2), ('Olivia x460', 2)]",8430,69.41,-37.7994564,144.9350124,0,8499.41,Autumn,False,1.8136,five stars love the phone!,True
ORD183326,ID6167359505,18/09/2019,Bakers,"[('Thunder line', 1), ('pearTV', 2), ('Alcon 10', 2)]",32700,78.67,-37.8093901,144.9731119,0,32778.67,Autumn,True,1.0714,"good phone, make sure all pieces are there package did not include tool to open nano sim tray. like new condition, no other problems.",True
ORD251803,ID0767752596,17/12/2019,Thompson,"[('Universe Note', 2), ('Lucent 330S', 1)]",8130,91.17,-37.8052332,144.9693261,10,7408.17,Spring,True,1.0271,this phone not tested enough. blue tooth feature sketchy. screen jumps sometimes. screen doesn't always react.,False
ORD278286,ID0233255272,6/11/2019,Thompson,"[('Thunder line', 1), ('Lucent 330S', 2), ('Candle Inferno', 1)]",5070,102.05,-37.8001778,144.9816496,0,5172.05,Summer,True,1.6191,"solid device, awesome seller fantastic, fantastic customer service. my device arrived a bit chipped and not really like new, and i was given a partial refund, extra accessories, as well as a two year warranty. given the new price and arrangement, this was an awesome deal, and i could not be happier.",True
ORD361410,ID6197211228,21/12/2019,Thompson,"[('Candle Inferno', 1), ('iAssist Line', 1), ('Alcon 10', 2), ('Lucent 330S', 2)]",23015,95.39,-37.814316,144.9359634,25,17356.64,Summer,False,0.9936,great phone battery life came at 88%. it looked new and it had no scratches on it. would definitely recommend buying from this seller,True
ORD196896,ID3098154908,18/02/2019,Bakers,"[('pearTV', 1), ('Universe Note', 2), ('Alcon 10', 2), ('Lucent 330S', 1)]",32340,66.11,144.9374944,-37.8229997,15,27555.11,Autumn,False,1.4249,never had a problem never had a problem have had this phone for over 1 year camera takes decent not great pics nice big buttons for texting call quality excellent battery life pretty good all in all a happy camper,True
ORD143904,ID0531390701,13/01/2019,Bakers,"[('Candle Inferno', 2), ('iAssist Line', 2), ('Thunder line', 1), ('pearTV', 1)]",13800,90.23,-37.8253207,144.9533112,15,11820.23,Spring,True,1.5111,missing safari it was missing safari.,False
ORD173706,ID0248746980,6/11/2019,Bakers,"[('Lucent 330S', 1), ('iAssist Line', 2)]",6930,82.69,-37.821635,144.9986317,5,5478.69,Autumn,True,1.3297,"great product only stipulation is it doesn't have the aim ... great product only stipulation is it doesn't have the aim card tool, however i used my watch tool kit to open the sim card tray.",True
ORD180071,ID0591233116,30/03/2019,Bakers,"[('pearTV', 1), ('Lucent 330S', 2)]",8770,68.83,-37.8248762,144.9534785,5,8400.33,Autumn,False,1.4707,"a four star out of five i like this phone, grate performance big display in a moderate size phone body :)",True
ORD400359,ID0581765998,25/05/2019,Thompson,"[('iAssist Line', 2), ('Candle Inferno', 2)]",5310,75.42,-37.8058839,144.9372744,0,5385.42,summer,False,1.1459,looks & works great! excellent. been using the phone for over a week now. works great. looks like new as seller indicated.,True
ORD212257,ID1879021163,23/05/2019,Thompson,"[('Olivia x460', 2), ('iStream', 1), ('Universe Note', 2)]",9500,79.03,-37.8158837,144.9823994,15,29548.14,Winter,True,1.1695,great purchase the phone came directly from verizon and it was shipped rather quickly. the battery life and overall condition is really great for a refurbished phone.,True
ORD018114,ID0634783069,13/12/2019,Thompson,"[('Alcon 10', 2), ('iStream', 1), ('pearTV', 1)]",24360,64.52,-37.8118276,144.9389465,5,23206.52,Autumn,True,0.7205,"five stars i like this, good camera. the only problem is not getting a correct screen protector",True
ORD338233,ID5292513668,17/05/2019,Nickolson,"[('Universe Note', 1), ('Olivia x460', 1), ('Candle Inferno', 2), ('pearTV', 1)]",11845,77.64,-37.8154936,144.9388089,0,11922.64,Summer,True,0.7913,you can buy a new one for less $900!! thats the price for a new alcon x,False
ORD128363,ID6084169540,22/08/2019,Nickolson,"[('Olivia x460', 1), ('iStream', 2), ('Candle Inferno', 2), ('iAssist Line', 1)]",4610,83.6,-37.8023534,144.9630115,0,4693.6,Spring,False,1.8126,"nice screen, nice performance good cell-phone. i like the screen quality and photos. fast enough for my daily work and good storage. works good in argentina. this international version came with an european plug and us adaptor.",True
ORD013787,ID0634783569,12/07/2019,Thompson,"[('iStream', 1), ('Toshika 750', 2), ('Thunder line', 2), ('Candle Inferno', 2)]",14010,50.9,-37.8127454,144.9371911,25,10558.4,Winter,False,0.8687,"led screen tanks after 10 days no stars. two weeks after purchase the led screen ""tanked"" making the phone useless...lucky for me verizon was willing to replace it. another week of waiting,and then re programming set up not impossible but dang inconvenient. will never purchase anything from this company again.",False
ORD219072,ID0310728585,9/07/2019,Nickolson,"[('pearTV', 1), ('Alcon 10', 2)]",24210,77.41,-37.8134499,144.9369846,0,24287.41,Winter,True,0.891,"i love easy successful transactions i love easy successful transactions, which this was. easy trip to verizon for the sim card. nice phone for an affordable price.",True
ORD485612,ID5880339363,25/12/2019,Bakers,"[('Lucent 330S', 2), ('Olivia x460', 2), ('Alcon 10', 2)]",22810,66.32,-37.8196796,144.9600579,10,20595.32,Autumn,True,0.8435,rear camera shakes uncontrollably the preview of the camera shakes uncontrollably and doesnt focus. purchased warranty and have attempted to reconcile issues with seller with zero response.,False
ORD192270,ID0655124862,11/07/2019,Nickolson,"[('iStream', 2), ('iAssist Line', 2)]",4750,76.13,-37.807502,144.942541,0,4247.24,Winter,True,0.7,"we like it a lot, sound is better than the original thunder, the bass feels deeper.  the screen is cool, though, havent got a lot of use out of it though.",True
ORD254398,ID6167254960,12/09/2019,Bakers,"[('Thunder line', 2), ('pearTV', 2), ('Alcon 10', 1), ('iAssist Line', 2)]",30380,61.54,-37.8178951,144.9706741,10,27403.54,summer,False,0.1258,"five stars nice condition, only few scratches, wellplayed for such price",True
ORD349907,ID0709973969,23/08/2019,Bakers,"[('iStream', 2), ('pearTV', 2), ('Thunder line', 1)]",15100,66.32,-37.8159687,144.9339652,10,13656.32,Winter,False,1.2093,five stars nice sealed box offer,True
ORD072394,ID0844471450,19/06/2019,Thompson,"[('iStream', 2), ('Thunder line', 1)]",2480,74.74,-37.8224097,144.9479011,5,12145.24,Summer,False,1.0863,trust like,True
ORD307597,ID1545444105,17/10/2019,Thompson,"[('Lucent 330S', 1), ('Toshika 750', 1)]",5550,71.18,-37.7940869,144.947129,10,5066.18,Autumn,True,2.069,excellent. excellent cell. very fast.,True
ORD171054,ID0591408080,17/12/2019,Nickolson,"[('iAssist Line', 1), ('Thunder line', 2)]",6585,79.18,-37.8225727,144.9609943,5,6334.93,Winter,True,0.873,good! it seem to be good. it was a great deal.,True
ORD028635,ID0767594381,23/10/2019,Bakers,"[('Thunder line', 1), ('iAssist Line', 1), ('iStream', 1), ('Alcon 10', 1)]",13505,80.4,-37.8071068,144.9709672,10,12234.9,Winter,True,1.2849,worth the money solid phone exept for the battery that could have been better...,True
ORD263741,ID0599155611,29/11/2019,Thompson,"[('Olivia x460', 1), ('Toshika 750', 2), ('iStream', 2)]",10165,86.36,-37.8174594,144.9778062,25,7710.11,Spring,True,0.7369,item returned for refund. this item was returned.,False
ORD456924,ID0306905226,23/09/2019,Thompson,"[('Thunder line', 1), ('iStream', 2), ('pearTV', 2)]",15100,74.6,-37.812284,144.9385832,25,11399.6,Spring,True,0.7475,"five stars good deal, fast delivery!",True
ORD039201,ID0767582148,13/01/2019,Thompson,"[('Olivia x460', 1), ('iStream', 2)]",1525,97.3,-37.8080557,144.9714543,5,1546.05,Summer,False,1.1851,its an okay phone. seems like the exynos version has a battery and performance issues as compared to snapdragon version. it gets very hot even on mild tasks. battery could be better.,True
ORD235866,ID0531390695,29/03/2019,Nickolson,"[('Candle Inferno', 1), ('iAssist Line', 2), ('iStream', 1), ('pearTV', 1)]",11340,67.83,-37.8242871,144.9504988,15,9706.83,Autumn,False,1.3275,"great camera! love the face recognition! fingerprint reader takes a while to warm up and didn't work well with thumbs. i wish it were on the back. other than that, i love it!",True
ORD178621,ID0233275013,25/01/2019,Bakers,"[('iAssist Line', 1), ('Lucent 330S', 1)]",3455,68.08,-37.7996046,144.976257,25,2659.33,Autumn,True,2.0306,it doesn't hold a good charge it goes in and out of service all the time,False
ORD008781,ID3222703077,13/07/2019,Thompson,"[('Thunder line', 1), ('iStream', 1), ('pearTV', 2)]",14950,90.09,-37.8018662,144.9432382,25,11302.59,Spring,True,1.2493,this phone was not a good buy. within 3 months of purchase i had ... this phone was not a good buy. within 3 months of purchase i had to buy another battery. the battery swell up in the phone. this is a waste of money.,False
ORD202494,ID0575386414,26/09/2019,Nickolson,"[('Universe Note', 2), ('Candle Inferno', 2), ('iAssist Line', 2), ('Lucent 330S', 2)]",14670,66.32,144.9844136,-37.8201368,0,14736.32,Autumn,False,1.3182,four stars is good phone.,True
ORD419016,ID0331417008,9/11/2019,Nickolson,"[('Olivia x460', 1), ('iStream', 2), ('iAssist Line', 1), ('Candle Inferno', 2)]",4610,82.84,-37.8217938,145.0095174,0,4692.84,Summer,False,1.8174,"lightweight & design bought for a friend, she loves it. she uses the face recognition to unlock the phone. shes coming from. j to a 9+ so she's super excited. features & design of the phone has her all up in her feelings for this phone.",True
ORD247555,ID4694397703,15/12/2019,Bakers,"[('Olivia x460', 2), ('pearTV', 2)]",15070,64.93,-37.8059784,144.9872632,10,13627.93,Autumn,False,0.8314,"this phone rocks!!! just simply the best phone i have ever used, and i have used a lot of phones, including alcon's and androids.",True
ORD025774,ID0529204761,15/10/2019,Thompson,"[('Thunder line', 1), ('Toshika 750', 2), ('Universe Note', 1), ('Alcon 10', 1)]",23220,83.23,-37.8233203,144.9351962,10,20981.23,Spring,False,1.5795,it's works amazingly great phone.,True
ORD112722,ID0777839234,7/01/2019,Thompson,"[('pearTV', 1), ('Lucent 330S', 2)]",6780,107.48,-37.8017388,144.9574225,15,5870.48,Spring,True,1.5201,four stars i love this phone was a good buy.,True
ORD385583,ID0774527826,19/06/2019,Bakers,"[('iAssist Line', 2), ('Alcon 10', 1), ('iStream', 2)]",13700,50.03,-37.8062887,144.9593388,5,13065.03,Autumn,False,1.2921,"mms messages unable to send mms messages or receieve group text as a group, messages get sent individually. unable to change this setting.",False
ORD395699,ID0767820372,10/03/2019,Bakers,"[('iAssist Line', 2), ('pearTV', 2)]",17070,87.85,-37.8027408,144.9734085,10,15450.85,Summer,True,0.6428,two stars does it come with battery,False
ORD312024,ID0248746943,21/06/2019,Thompson,"[('Universe Note', 1), ('Olivia x460', 1)]",4675,91.65,-37.8229398,144.9904291,25,3597.9,Spring,True,1.5015,"for the price, it's tough to complain but it does occasionally stutter or get slow downs. overall, you can't find a tablet at this price that will outperform but if you do have the extra money, i would use it for the new inferno hd 8 instead.",False
ORD242802,ID3158860636,10/09/2019,Bakers,"[('Thunder line', 1), ('Alcon 10', 2), ('Olivia x460', 2)]",22530,76.98,-37.8136656,144.955769,5,21480.48,Spring,False,0.773,i use it for downloading and reading books. it is the perfect size for this purpose. it is also very light.,True
ORD364989,ID2174950796,30/11/2019,Thompson,"[('pearTV', 2), ('Candle Inferno', 1)]",13050,75.23,-37.816084,144.9528785,25,9862.73,Spring,True,0.6365,good deal it's a great phone. it's even better when you save $100 on a refurbished one.,True
ORD400661,ID0582798837,27/10/2019,Thompson,"[('Universe Note', 2), ('Alcon 10', 2), ('Lucent 330S', 1), ('Candle Inferno', 1)]",26460,101.58,-37.819704,144.9791275,10,23915.58,Spring,True,0.8511,five stars it showed up extremely early husband loves it!!!,False
ORD077592,ID6102701826,23/06/2019,Nickolson,"[('Alcon 10', 2), ('iAssist Line', 1), ('iStream', 2), ('Toshika 750', 2)]",3620,113.06,-37.8240633,144.9262277,15,24818.31,Spring,True,2.2285,"very good and seems brand new good deal, buyspry customers service is amazing and they really helpful.",True
ORD281957,ID2960003295,5/07/2019,Thompson,"[('pearTV', 1), ('Alcon 10', 1), ('Lucent 330S', 1), ('iStream', 1)]",16640,71.92,-37.818423,144.9656354,10,15047.92,Spring,False,0.3449,great phone for the money! dose everything and more that the high price phones do.,True
ORD257778,ID3967630101,18/10/2019,Thompson,"[('Olivia x460', 1), ('Alcon 10', 2), ('Thunder line', 2)]",23485,100.27,-37.8187556,144.9529046,15,20062.52,Spring,True,0.3838,"just what i needed in a phone! i am writing this review on the very phone i bought. for being a used phone i sure feel like i got a new phone. very happy with this phone. between the speed and reliability of this phone, it's has been nothing but short than perfect for me and my business.",True
ORD486091,ID2935358344,20/04/2019,Thompson,"[('Olivia x460', 1), ('Thunder line', 1), ('iStream', 1), ('Lucent 330S', 2)]",6015,86.87,-37.8271664,144.9941152,5,5801.12,Summer,False,1.9139,daughter loves it. everything transferred from her candle to the inferno. she said it is unbelievable fast.,True
ORD290174,ID4297530201,26/12/2019,Nickolson,"[('Universe Note', 2), ('Thunder line', 1), ('Candle Inferno', 1), ('iAssist Line', 1)]",3620,86.9,-37.8023255,144.9777778,25,8888.15,Spring,False,1.7566,"the thunder line was easy to set up and use. it helps provide music, etc. to small spaces and was just what i was looking for.",True
ORD335168,ID6245731104,11/07/2019,Nickolson,"[('Candle Inferno', 2), ('Toshika 750', 2), ('pearTV', 2), ('Universe Note', 1)]",25570,52.02,144.976295,-37.8098661,0,25622.02,Autumn,False,1.1384,cheaper model received. ad says universe j3 and i have received diferent cheaper model. dont buy this.,False
ORD075111,ID3114182130,3/07/2019,Thompson,"[('iAssist Line', 1), ('Toshika 750', 1), ('pearTV', 1), ('Alcon 10', 1)]",21805,73.87,-37.8109799,144.9637799,5,20788.62,Summer,False,0.988,"its compatible with verizon i love it!!!!!!!!!! minor statches, no problem at all",True
ORD134905,ID0746917853,2/07/2019,Nickolson,"[('Candle Inferno', 1), ('pearTV', 2)]",13050,66.66,-37.8245566,144.984639,15,12392.37,Autumn,False,1.4834,make sure u go into your carriers store to hook up your service it's great other than the info being in spanish,True
ORD302020,ID5002595117,27/01/2019,Thompson,"[('Universe Note', 1), ('Lucent 330S', 2), ('iStream', 2)]",6210,64.87,-37.8121238,144.9534288,15,5343.37,Autumn,False,0.5626,nice worth full,True
ORD448431,ID0591341189,15/02/2019,Thompson,"[('pearTV', 2), ('Alcon 10', 1)]",21570,81.13,-37.821204,144.9581619,0,21651.13,Autumn,True,1.0428,great phone i really like this phone,True
ORD266516,ID4721155495,3/04/2019,Nickolson,"[('Lucent 330S', 1), ('pearTV', 2), ('Candle Inferno', 2), ('Olivia x460', 1)]",15935,51.63,-37.8061689,144.941645,5,15189.88,Autumn,False,0.867,no warranty no warranty. be careful,True
ORD243044,ID0575533900,1/08/2019,Bakers,"[('Lucent 330S', 1), ('iAssist Line', 1), ('iStream', 1)]",3605,98.3,-37.8226242,144.9825669,25,2802.05,Summer,True,1.2293,"before the 8 inch candle we the old 7 inch one, which both tablets are great but this one so much nicer. the screen is bigger, more storage amd love the color on the back. great tablet",True
ORD184265,ID0287629447,12/11/2019,Thompson,"[('Toshika 750', 1), ('iAssist Line', 1), ('iStream', 1), ('Olivia x460', 2)]",9145,64.6,-37.8043419,144.9488589,0,9209.6,Winter,False,0.9407,"my husband likes it! nice and sleek looking. my husband likes it. it came on perfect time, he got to used for his trip to japan and took great pictures with it.",True
ORD014014,ID0277517041,14/07/2019,Nickolson,"[('iAssist Line', 2), ('iStream', 2), ('Alcon 10', 2)]",22650,67.94,-37.8062827,144.9584448,10,20452.94,Autumn,False,1.2276,five stars it's great i love it and the camera is very nice and clear.,False
ORD288551,ID6167440954,5/04/2019,Nickolson,"[('Olivia x460', 1), ('Alcon 10', 1), ('Lucent 330S', 2)]",12635,83.84,-37.8161932,144.963924,10,11455.34,Spring,False,0.5624,overheats & does not keep charge this phone does not keep it's charge for long and overheats. many of the options are removed so certain things cannot be done. says unlocked but does not maintain a connection to the network i am on for very long. so many times i am stuck with a paper weight as i am unable to make calls or use data.,False
ORD242120,ID4754200380,28/04/2019,Bakers,"[('Universe Note', 1), ('Toshika 750', 2), ('Thunder line', 2)]",16450,82.0,-37.8152417,144.9276167,5,15709.5,Summer,False,1.7344,awesome device wish i bought one ages ago.,True
ORD084721,ID0267315608,10/10/2019,Nickolson,"[('Toshika 750', 2), ('iStream', 1), ('iAssist Line', 2)]",13240,73.94,-37.8265787,144.9725487,25,10003.94,Summer,False,0.927,good price renewed from digico? sometimes it's worth.,True
ORD088904,ID0702376185,20/02/2019,Nickolson,"[('Toshika 750', 2), ('iAssist Line', 2), ('iStream', 1)]",13240,101.99,-37.8062369,144.9416974,25,10031.99,Spring,True,0.8582,"the best product for the money the design is really amazing, i got the blue one, it is really good looking, looks like a morr expensive phone. the performance: very good. well done by xiaomi.",True
ORD214538,ID0107167010,6/09/2019,Thompson,"[('Toshika 750', 2), ('iStream', 2), ('Lucent 330S', 1), ('Alcon 10', 2)]",28070,60.7,-37.8203816,144.9653528,25,21113.2,Winter,True,0.4193,good phone works great so far,True
ORD251492,ID0373656437,5/10/2019,Thompson,"[('iAssist Line', 2), ('Alcon 10', 2), ('Lucent 330S', 2), ('Universe Note', 1)]",28260,98.33,-37.812962,144.9314945,5,26945.33,Summer,True,1.37,"five stars best 5"" windows phone, period.",True
ORD279172,ID0571730618,2/05/2019,Nickolson,"[('Olivia x460', 2), ('Lucent 330S', 2), ('Thunder line', 2)]",4675,76.82,-37.8188302,144.9567625,5,8883.32,Summer,False,1.0938,best budget phone for a 500 $ its a steal,True
ORD056767,ID5402876190,27/04/2019,Bakers,"[('Olivia x460', 1), ('iAssist Line', 2)]",5675,64.37,-37.8204588,144.976857,10,5171.87,Summer,False,0.6751,five stars i was completely satisfied,True
ORD304481,ID3790949315,16/09/2019,Bakers,"[('iStream', 2), ('iAssist Line', 2)]",4750,76.39,-37.8053799,144.9372176,5,4588.89,Summer,False,1.1873,quality of my phone is like new. i love my phone it works great. thanks for having quality products.,True
ORD410948,ID2249465789,27/11/2019,Thompson,"[('Toshika 750', 1), ('iStream', 2)]",4620,73.22,-37.8273797,145.0136202,5,4462.22,Summer,False,2.5217,no funciona el bluetooth en mi universe s8 se corta la msica tengo muchas fallas con el bluetooth en mi universe s8 se corta la msica ocupo la actualizacin de software,False
ORD252339,ID6167489442,3/04/2019,Bakers,"[('pearTV', 2), ('Alcon 10', 2), ('Candle Inferno', 1), ('Olivia x460', 2)]",33400,68.64,-37.8130823,144.959658,5,31798.64,Winter,False,1.0646,still learning very happy that this phone has many services that i didn't expect from a phone of this price. every day i learn something new. only negative is expected less recharge.,False
ORD027372,ID2181275340,22/03/2019,Thompson,"[('Universe Note', 2), ('Toshika 750', 1), ('iStream', 2), ('iAssist Line', 1)]",12120,80.01,-37.8088231,144.9662083,10,12450.51,Summer,True,1.1268,esperando. aun no recibo el celular,False
ORD382877,ID0628182618,14/03/2019,Thompson,"[('Candle Inferno', 2), ('pearTV', 1)]",7170,61.79,-37.8135271,144.9490879,15,4971.9,Autumn,False,0.2014,ok ok,True
ORD088697,ID0319157116,30/05/2019,Thompson,"[('pearTV', 1), ('Candle Inferno', 1)]",6740,80.5,-37.8074393,144.9670156,15,5809.5,Spring,False,1.2617,best budget phone just what i expected like in the reviews on youtube,True
ORD453507,ID5668009768,8/12/2019,Thompson,"[('iAssist Line', 2), ('Lucent 330S', 1), ('Olivia x460', 1), ('Alcon 10', 2)]",24805,68.44,-37.7992341,145.0017791,0,24873.44,Winter,True,1.3292,four stars it's nice and acts quick. similar to my universe. s4,True
ORD444303,ID0541122893,15/02/2019,Thompson,"[('Alcon 10', 1), ('Toshika 750', 2)]",9070,83.76,-37.8043758,145.0136079,0,9153.76,Spring,False,1.733,this phone rocks!! best decision i could have ever made plus the price was right. i honestly love my phone. what made my purchase so easy was the step by step instructions that were included and 2day shipping awesome.,True
ORD256272,ID1445498783,12/06/2019,Bakers,"[('Universe Note', 2), ('pearTV', 1), ('iAssist Line', 1), ('iStream', 2)]",15735,80.26,144.9834347,-37.8169429,15,13455.01,Spring,False,1.2347,great phone great phone. i love the note series olivia phones!,True
ORD021616,ID0595594348,23/09/2019,Bakers,"[('Toshika 750', 1), ('iAssist Line', 2)]",8770,78.08,-37.8101896,144.9695886,0,8848.08,Winter,True,0.9357,good i love this! the phone came a little scratched up but came with a screen protector which was a plus. the phone worked like new!,True
ORD462057,ID0255058357,20/08/2019,Thompson,"[('iStream', 2), ('Universe Note', 2)]",7200,49.59,-37.8129246,144.9714506,5,6889.59,Autumn,True,0.6529,"definitely, not a good buy. totally worst and waste of your money!!! the device vibration intensity is very low, you cant feel it is vibrating when you receive calls. loud speaker is very low. its is better to buy other mid range devices from olivia etc. its not definitely worth the money.",False
ORD113310,ID0250480666,29/10/2019,Bakers,"[('iAssist Line', 2), ('Candle Inferno', 1)]",4880,70.61,-37.8106542,145.0015254,5,2150.95,Summer,False,0.5583,"five stars absolutely love it, bought for wife",True
ORD471013,ID6167441014,4/07/2019,Nickolson,"[('iStream', 2), ('Toshika 750', 1)]",4620,66.9,-37.8070657,144.9600359,5,4455.9,Autumn,False,1.3001,slim n elegant look.. slim n comfortable to hold for anyone...,True
ORD056064,ID0247417835,18/01/2019,Thompson,"[('iAssist Line', 1), ('Thunder line', 2), ('Candle Inferno', 1)]",7015,69.17,-37.818357,144.9690051,25,5330.42,Spring,True,0.0548,five stars i'm in love with this phone. item arrived on time as described. very happy :),True
ORD251431,ID0844475994,1/11/2019,Thompson,"[('Universe Note', 2), ('iStream', 2)]",7200,67.01,-37.8223208,144.9478191,15,6187.01,Winter,False,1.076,"five stars fantastic phone....exactly what i wanted. easy to understand,,easy to operate ....its the best pre paid phone i've ever had",True
ORD016840,ID0547586414,22/03/2019,Thompson,"[('pearTV', 1), ('Candle Inferno', 1), ('Thunder line', 2)]",11100,58.22,144.9852248,-37.8132223,10,10048.22,Summer,False,0.9505,kanga is a misleading site. this phone is used but you have to dig to find that out. beware of kanga!,False
ORD002154,ID3106293381,2/12/2019,Thompson,"[('iAssist Line', 1), ('iStream', 2), ('Thunder line', 2), ('Toshika 750', 2)]",15525,69.96,-37.8066242,144.9323335,5,14818.71,Winter,False,1.4604,very easy to use. size is just right --not cumbersome at all.,True
ORD321553,ID0036825325,29/09/2019,Nickolson,"[('Lucent 330S', 1), ('iAssist Line', 2), ('Toshika 750', 2), ('iStream', 1)]",14470,67.38,-37.8255903,144.9455491,5,13813.88,Winter,False,1.4441,phone great phone!,True
ORD205905,ID0746912630,28/08/2019,Thompson,"[('pearTV', 1), ('Lucent 330S', 2)]",8770,81.89,-37.8256025,144.9845723,0,8851.89,Winter,True,1.534,amazing!! amazing!!!i bought this to put on walmart family mobile. just put my sim card in and i was in business. the s pen is so cool.. the pink phone is exactly the same color as the picture. battery seems to hold very good. ringtone volume is loud.. i love this phone!!!!,True
ORD208367,ID0400812631,5/01/2019,Nickolson,"[('Alcon 10', 2), ('Lucent 330S', 1), ('Universe Note', 2), ('iAssist Line', 1)]",28255,92.36,-37.8237612,144.9562133,0,28347.36,Spring,True,1.3062,do not work just 4 months and the phone does not work propertly and now is not working at all...,False
ORD430303,ID1458422303,10/06/2019,Nickolson,"[('iAssist Line', 2), ('Toshika 750', 2), ('Lucent 330S', 2)]",15550,79.66,-37.8188443,145.0068388,0,15629.66,Summer,True,1.4184,excellent dont listen to any bad review the phone is new and unlocked,True
ORD175283,ID0664379339,3/07/2019,Nickolson,"[('pearTV', 2), ('Toshika 750', 1), ('Candle Inferno', 2)]",17800,72.96,-37.820425,144.9657484,15,15202.96,winter,False,0.3915,very happy!!! quisiera poder dar 1000 demasiado bueno super feiliz,True
ORD373901,ID1492150953,23/09/2019,Nickolson,"[('iStream', 2), ('Alcon 10', 2), ('Thunder line', 2)]",22560,73.31,-37.8145433,144.9520468,15,19249.31,Spring,True,0.4847,great phone received it on time. brand new i love it,True
ORD409061,ID2569100372,5/03/2019,Nickolson,"[('Olivia x460', 1), ('Universe Note', 1), ('Lucent 330S', 1)]",5905,69.71,-37.8234541,144.9937219,10,5384.21,Winter,False,1.504,works and looks like new. i use mine on metropcs. it was like a new phone except it had an off brand charger and head phones (both seemed new at least) and it cam with the wrong cable (usb c). i would buy again.,True
ORD391390,ID0708721417,1/11/2019,Nickolson,"[('Lucent 330S', 2), ('iAssist Line', 1), ('Toshika 750', 2)]",13325,66.95,-37.8075807,144.9577981,5,12725.7,Autumn,False,1.1008,as expected we received the phone in excellent condition as we expected. it was very easy to activate and is working fine,True
ORD268044,ID4460254047,21/11/2019,Thompson,"[('Lucent 330S', 1), ('Candle Inferno', 2), ('iAssist Line', 1), ('Thunder line', 2)]",8675,64.94,-37.802897,144.9480927,10,13455.01,Winter,False,1.092,nice phone works fine,True
ORD122353,ID0296027679,15/03/2019,Thompson,"[('Universe Note', 1), ('Olivia x460', 2), ('Thunder line', 1), ('iStream', 2)]",8380,70.36,-37.8112753,144.9471699,10,7612.36,Spring,False,0.1559,great phone! love this phone! processed it from dealfisher and they were great! does everything i want and more!,True
ORD250559,ID2266485217,25/11/2019,Nickolson,"[('pearTV', 1), ('iAssist Line', 1)]",8535,63.72,144.9668485,-37.8251917,0,8598.72,Autumn,True,0.7718,not a good product numerous broken functions.,False
ORD216701,ID0418548823,3/10/2019,Thompson,"[('Alcon 10', 2), ('Candle Inferno', 2), ('iStream', 1), ('Olivia x460', 2)]",21360,68.05,-37.8221265,144.9868273,10,19292.05,Autumn,False,1.5394,four stars the phone is great but it's missing head phone and original charger,True
ORD273496,ID0060088469,20/01/2019,Thompson,"[('iAssist Line', 2), ('Candle Inferno', 1)]",4880,94.14,-37.8183988,144.9787977,5,4730.14,Summer,True,0.8134,no issue i loved the phone,True
ORD363662,ID3094966840,3/01/2019,Nickolson,"[('Universe Note', 1), ('Alcon 10', 1), ('Candle Inferno', 1)]",12830,66.76,-37.8033298,144.9480135,10,11613.76,Winter,False,1.0434,lovely and came early i got it earlier and i love it,True
ORD497124,ID0111302426,29/12/2019,Nickolson,"[('Candle Inferno', 2), ('Thunder line', 1), ('pearTV', 1), ('Olivia x460', 2)]",11800,99.32,-37.8253057,144.9571467,15,9179.87,Summer,True,1.322,"compared to october my s4, this salcond has a ... compared to october my s4, this salcond has a number of advanced features.",True
ORD237360,ID2810279749,27/12/2019,Nickolson,"[('iAssist Line', 2), ('pearTV', 1), ('Alcon 10', 2), ('Lucent 330S', 2)]",31120,94.16,-37.8172122,144.9893246,25,23434.16,Summer,True,0.9566,an excellent cell phone it exceeded my expectations.,True
ORD147478,ID0575396015,11/10/2019,Thompson,"[('Toshika 750', 2), ('iStream', 2)]",4405,80.65,-37.8210743,144.9830055,5,8573.65,Autumn,True,1.2149,"for the price you really can't beat this tablet. the picture looks good, digico has a great game, movie and music catalog. so if your looks big for something just to view movies on, play games or surf the web get this one because for the price it can't be beat!",True
ORD016529,ID6167191689,15/10/2019,Bakers,"[('Candle Inferno', 2), ('Lucent 330S', 1)]",2090,68.14,-37.8191792,144.9540185,15,1844.64,Autumn,False,0.9476,new cell olivia note 5 new :t mobile cell a-1 purchase great,True
ORD477699,ID1458418065,10/08/2019,Thompson,"[('Candle Inferno', 2), ('pearTV', 2)]",13480,56.01,-37.8196578,145.0098988,25,3713.93,Winter,False,1.6794,one star not unlocked phone,False
ORD028038,ID0589664669,5/04/2019,Thompson,"[('pearTV', 2), ('Toshika 750', 1), ('iStream', 2), ('Olivia x460', 1)]",18465,81.81,-37.8215607,144.9551428,25,13930.56,Autumn,True,0.873,great android phone for the money excellent phone and value.,True
ORD421062,ID4893294491,9/03/2019,Thompson,"[('Toshika 750', 2), ('Thunder line', 2), ('iStream', 1)]",13150,109.89,-37.816865,144.9289353,5,7872.44,Spring,True,1.6615,the best phone ever ,True
ORD122694,ID4326586217,17/04/2019,Bakers,"[('Thunder line', 2), ('Universe Note', 2), ('iAssist Line', 2)]",15710,74.2,-37.8161564,144.9641293,15,13427.7,Spring,False,1.5804,"i lost my money excellent, was received, but not released, as i said, i lost my money excellent ,",True
ORD076975,ID4315294436,5/08/2019,Bakers,"[('Lucent 330S', 2), ('Toshika 750', 2), ('pearTV', 1), ('Olivia x460', 1)]",18635,57.07,-37.8171028,144.9533445,0,18692.07,Summer,False,1.767,i am familiarizing my self with no conclusion to say something about it now.,False
ORD197468,ID0299027314,1/07/2019,Thompson,"[('Lucent 330S', 1), ('Toshika 750', 2), ('Candle Inferno', 2), ('pearTV', 2)]",23350,83.74,-37.8007404,145.0101478,10,7720.03,Spring,False,1.6681,net 10 i really liked the phone i had already had a similar one before so i really liked so decided to get another one... its really good and better was the price... i would recommend it..,True
ORD358109,ID4735909075,19/02/2019,Thompson,"[('Alcon 10', 1), ('Candle Inferno', 2)]",9810,48.72,-37.8041573,144.9499999,25,7406.22,Winter,False,0.9824,one star the phone did not work at all.,False
ORD121868,ID0581776547,12/02/2019,Thompson,"[('Alcon 10', 2), ('Lucent 330S', 2), ('iStream', 1)]",20510,61.48,-37.8097355,144.9432826,15,17494.98,Autumn,False,0.4667,five stars great size,True
ORD299842,ID0529204972,3/06/2019,Bakers,"[('Universe Note', 2), ('Olivia x460', 2), ('Toshika 750', 2), ('Alcon 10', 2)]",35890,66.59,-37.8237402,144.9353131,25,26984.09,Spring,False,1.6082,"no sirve el auricular, no se escucha bad bad bad, the headset does not work, it is not heard",False
ORD347779,ID0089538018,3/03/2019,Nickolson,"[('iAssist Line', 1), ('Candle Inferno', 2), ('Universe Note', 1), ('Alcon 10', 2)]",23165,80.4,-37.8020289,144.9565354,0,23245.4,Winter,True,1.4482,"good price, bought it already owned a lucent g something happened to it. went on line saw this one, good price, bought it, ok to go agaoin",True
ORD017955,ID2325395494,13/08/2019,Nickolson,"[('Toshika 750', 1), ('Candle Inferno', 2)]",5180,50.9,144.9590029,-37.8086131,5,4971.9,Autumn,False,1.1427,its stolen went to sprint to have it turned on andthey told me it was stolen,False
ORD167509,ID3148722377,22/05/2019,Bakers,"[('Universe Note', 2), ('Alcon 10', 2), ('Thunder line', 2)]",15710,88.38,-37.8210995,144.9578039,25,11870.88,Spring,True,1.0699,... me wth purple all over the screen and i wasted my money this phone never worked it came to me wth purple all over the screen and i wasted my money completely,False
ORD185793,ID0227770421,15/05/2019,Nickolson,"[('Thunder line', 1), ('Olivia x460', 2), ('Alcon 10', 1), ('Lucent 330S', 2)]",16040,65.46,-37.7990396,144.9850633,5,15303.46,Spring,False,1.5124,"not a refurbished alcon it is not a refurbished alcon, it is activated",False
ORD045119,ID0247031987,6/10/2019,Bakers,"[('Universe Note', 2), ('iAssist Line', 2), ('iStream', 2)]",11650,70.32,-37.814108,144.972422,10,10555.32,Summer,False,0.5597,"happy buyer 100% recommended, everything new, sealed",True
ORD123882,ID1713471333,10/03/2019,Nickolson,"[('Thunder line', 1), ('Universe Note', 2)]",9080,115.1,-37.7985094,144.9200724,0,9195.1,Summer,True,2.8502,this phone has some great features and it's a great upgrade for myself (s5) this phone has some great features and it's a great upgrade for myself (s5). only dislike is i have large hands and wished olivia would have kept the wider style note.,True
ORD466163,ID0233262526,24/10/2019,Thompson,"[('iStream', 2), ('Olivia x460', 1), ('Universe Note', 1)]",4975,106.86,-37.8027967,144.9836144,25,3838.11,Spring,False,1.2986,very nice at this price use every day look good,True
ORD476477,ID2442297408,28/12/2019,Nickolson,"[('pearTV', 1), ('Candle Inferno', 2), ('Lucent 330S', 2), ('iStream', 2)]",9930,62.84,-37.8178098,144.9516661,15,8503.34,Winter,True,0.7003,"high end on low budget wow this phone is quite impressive for the money. everything about this phones seems to be on the high end of things. great screens, high quality camera, and overall a vibrant and luxury feeling.",True
ORD358161,ID2757574082,26/05/2019,Thompson,"[('Olivia x460', 1), ('Toshika 750', 2)]",9865,61.37,-37.8106261,144.9967319,15,8446.62,Winter,False,0.1494,"best phone ever. i like google product, their android so fast camera the best of the best i am looking forward to buy pixel 3 plus if i get a chance .",True
ORD151535,ID0588197262,4/09/2019,Thompson,"[('iStream', 1), ('Candle Inferno', 1), ('pearTV', 1), ('Universe Note', 2)]",13790,73.17,-37.8121189,144.9738772,10,12484.17,Summer,False,0.8151,four stars ok,True
ORD371849,ID0591435396,1/07/2019,Thompson,"[('pearTV', 2), ('iAssist Line', 1), ('Olivia x460', 1), ('iStream', 2)]",16370,59.92,-37.8180175,144.9694443,25,12337.42,Winter,False,0.065,it arrived on time phone is so far so good. battery life is great,True
ORD013932,ID0581778402,5/06/2019,Nickolson,"[('Universe Note', 1), ('iStream', 2)]",3750,74.91,-37.8090287,144.9426335,25,2887.41,Winter,True,0.5628,"great phone, beautiful screen and fast great phone, beautiful screen and fast.",True
ORD077286,ID1560149569,23/02/2019,Nickolson,"[('Candle Inferno', 1), ('pearTV', 2), ('Lucent 330S', 2), ('Olivia x460', 2)]",17960,64.22,-37.815642,144.9373479,15,15330.22,Spring,False,0.9165,didn't know you had to buy space and many other things for this item to work.,False
ORD286386,ID4520380538,16/07/2019,Bakers,"[('Lucent 330S', 2), ('pearTV', 2), ('Universe Note', 2), ('Alcon 10', 2)]",39880,51.1,-37.817572,144.9591298,5,37937.1,Autumn,False,0.9234,"not fully refurbished!!! another refurbish fail. the battery won't hold a charge, and this phone was not restored to factory settings. battery should be replaced with new as part of a refurb. very disappointed. will never purchase another ""certified refurbished"" item through digico. ends up being more hassle for not much savings.",True
ORD340810,ID1068485079,18/12/2019,Nickolson,"[('Olivia x460', 1), ('Alcon 10', 1), ('Lucent 330S', 2), ('Universe Note', 1)]",16085,81.49,-37.8133733,145.0087621,25,12145.24,Autumn,True,1.2479,excellent pick up during the black friday sales. not too big not to small. this tablet bundled up with digico gold service is a great combo of inexpensive entertainment.,True
ORD120771,ID0775942445,17/01/2019,Thompson,"[('iAssist Line', 1), ('pearTV', 2)]",14845,82.09,-37.8064605,144.9613343,10,13442.59,Winter,True,1.4326,"four stars good phone, full screen, love the camera.",True
ORD292532,ID0579999705,14/07/2019,Nickolson,"[('Lucent 330S', 2), ('Olivia x460', 2), ('Universe Note', 2), ('Thunder line', 2)]",16170,83.25,-37.8058411,144.9317736,0,16253.25,Spring,False,1.5453,got this for my 3 year old and 7 year old and they love it. i have education apps and books that reads to them or they can read along. i would recommend getting a case for it if it's for the little ones just to keep it protected.,True
ORD188485,ID0137154180,14/02/2019,Thompson,"[('iAssist Line', 1), ('Universe Note', 2)]",9125,76.44,-37.8020328,144.9446325,5,8745.19,Summer,False,1.2037,"works amazing excellent device to use. ui is similar to uptodaye olivia devices. battery life works great, biometric scanners are phenomenal!. was very skeptical in purchasing this device. for a steady price it worth it.",True
ORD411641,ID2190478932,30/06/2019,Thompson,"[('Toshika 750', 2), ('Alcon 10', 1), ('Olivia x460', 2), ('Thunder line', 1)]",22220,71.12,-37.8162554,144.9640149,5,21180.12,Summer,True,0.5521,olivia the superior cellphone brand tried other phones after having a olivia s5 from alcons to lgs and have to say am glad to have purchased a olivia again because it is a far superior product over the other brands in the market.,True
ORD449823,ID6167278769,20/11/2019,Thompson,"[('Candle Inferno', 1), ('iStream', 2)]",730,69.77,-37.8132846,144.9514825,25,617.27,Summer,False,0.8496,five stars good product and fast shipping,True
ORD107607,ID0846567040,16/06/2019,Thompson,"[('Olivia x460', 2), ('iStream', 1), ('Lucent 330S', 1), ('Toshika 750', 1)]",8150,74.45,-37.8231031,144.9699767,5,7816.95,Winter,True,0.5032,arrived early and just as described. we purchased this olivia universe s5 with great results. it arrived early and just as described! will definitely purchase from this seller again.olivia universe s5 g900v verizon 4g lte smartphone w/ 16mp camera - black,True
ORD282463,ID2658548178,23/08/2019,Thompson,"[('Thunder line', 1), ('Candle Inferno', 1), ('Olivia x460', 1)]",3835,83.01,-37.8038345,144.9630016,25,2959.26,Winter,True,1.7122,good phone it's worth the price,True
ORD354950,ID0163389547,20/03/2019,Nickolson,"[('iAssist Line', 1), ('Universe Note', 2), ('Olivia x460', 2)]",11575,56.17,-37.8146377,144.9538764,0,11631.17,Summer,False,0.6374,"and the calibration sucks. after only a few months of having this phone, the battery life decreases rapidly even when the phone is powered down, the screen freezes up, and the calibration sucks.",True
ORD215475,ID5957906942,24/02/2019,Nickolson,"[('Toshika 750', 2), ('pearTV', 1), ('iStream', 2), ('Olivia x460', 1)]",16475,105.88,-37.8013732,144.9743139,15,14109.63,Summer,True,1.9623,good value just as advertised. works just fine. looks like new. happy with purchase.,True
ORD212700,ID0575434484,18/08/2019,Nickolson,"[('pearTV', 1), ('Universe Note', 1), ('iAssist Line', 1), ('Olivia x460', 2)]",14435,104.52,-37.8188221,144.9821646,10,13096.02,Spring,True,1.1095,"solid phone very durable, great for my work phone. i cant have a camera phone at work, the camera on this was easy for me to pop out and fill with jb weld. good sound quality. texting takes a little getting used to, but overall great phone for the price!",True
ORD236227,ID0145261535,22/08/2019,Nickolson,"[('iStream', 1), ('Alcon 10', 1), ('Universe Note', 1)]",12550,80.51,-37.8158075,144.9615259,10,11375.51,Autumn,True,0.7709,great item in excellent condition it came within the promised time period and the item is close to being brand new. good value for money.,True
ORD252242,ID0575524457,1/02/2019,Thompson,"[('iAssist Line', 1), ('iStream', 1)]",2375,76.85,-37.8212248,144.9830336,5,2333.1,Summer,False,1.2212,four stars i like it. it worth its price! the design is cool,True
ORD001512,ID0041675727,10/03/2019,Thompson,"[('iStream', 1), ('Candle Inferno', 1)]",580,74.23,-37.8218255,144.9749359,0,10264.11,Summer,True,0.5946,"too small for me. page turning constantly due to size. page refresh jumpy, irritating to my eyes.",False
ORD232291,ID0711773579,15/05/2019,Nickolson,"[('Thunder line', 1), ('pearTV', 1)]",8490,74.43,-37.8173802,144.9488957,0,8564.43,Summer,True,0.548,not working,False
ORD273833,ID0113541105,5/11/2019,Thompson,"[('Alcon 10', 1), ('Universe Note', 2), ('Lucent 330S', 1), ('iStream', 1)]",17230,75.88,-37.8175475,144.9633031,15,14721.38,Spring,False,0.5617,"make sure cell is unlocked, good cell phone, large problem as phone was not unlocked as advertised, had to goto verizon and spend over 1 hour to set up phone. still a good value, even tho not as advertised.",True
ORD362987,ID0664380199,25/12/2019,Nickolson,"[('Toshika 750', 1), ('Olivia x460', 1), ('Thunder line', 1), ('iStream', 2)]",8025,96.28,-37.8195648,144.969116,5,14492.72,Spring,True,0.1145,"just what i wanted this one worked out great, i will purchase another one for my mother.",True
ORD136411,ID0575375067,7/05/2019,Thompson,"[('Thunder line', 1), ('Alcon 10', 2), ('Lucent 330S', 1)]",21310,67.92,-37.8194217,144.9829558,10,19246.92,Autumn,False,1.1823,good price coming from a larger format phone i really miss the extra screen space,True
ORD079720,ID0575524459,2/04/2019,Nickolson,"[('Toshika 750', 2), ('pearTV', 2), ('iStream', 1), ('Universe Note', 1)]",24860,79.27,-37.8211104,144.9827909,15,21210.27,Winter,True,1.1974,"just like new! excellent conditions, with screen protector & everything working perfect. works with metro pcs.",True
ORD230052,ID0560986728,20/02/2019,Nickolson,"[('iStream', 1), ('Thunder line', 2), ('iAssist Line', 1), ('pearTV', 1)]",13045,65.97,144.9436993,-37.8199098,25,9849.72,Winter,False,0.8583,"easily, the best handset i've ever owned. slim, elegant, feature rich, great battery...what more could you possibly want in a phone?",True
ORD389217,ID0373644736,12/10/2019,Nickolson,"[('Universe Note', 2), ('pearTV', 2), ('Candle Inferno', 2)]",15940,68.83,-37.8085213,144.9280532,5,15211.83,Autumn,False,1.735,i bought one for my boyfriend and one for his son. it's fast and easy to use.,True
ORD169583,ID0331143090,18/08/2019,Thompson,"[('iStream', 1), ('Alcon 10', 1), ('Universe Note', 1)]",12550,86.58,-37.7995106,144.9687729,25,9499.08,Spring,False,2.1255,great phone this is a great phone. cheaper than usual price but quality is excellent. so far i have no problem with the phone.,True
ORD129582,ID0581712772,9/09/2019,Thompson,"[('Toshika 750', 1), ('pearTV', 1)]",10630,85.13,-37.8056467,144.9275595,10,9652.13,Spring,False,1.8857,"size, price and functionality. for a replacement for the zte max, which they discontinued. was very sorry about that. loved that phone.",True
ORD127974,ID1449285250,24/03/2019,Nickolson,"[('Universe Note', 1), ('Alcon 10', 2), ('Candle Inferno', 1)]",21780,53.65,-37.8161879,144.982733,10,19655.65,Winter,False,1.1898,not 8gb internal memory the box says 8gb bit its not real 8gb and its only 4gb,False
ORD465256,ID0781154146,2/11/2019,Thompson,"[('pearTV', 1), ('Universe Note', 1)]",9760,93.46,-37.8050094,144.9420299,10,8877.46,Summer,True,0.7388,great value for money. it arrived as expected and was in mint condition. i am very pleased.,True
ORD101175,ID1458418005,28/10/2019,Nickolson,"[('iAssist Line', 2), ('Universe Note', 2)]",11350,66.9,-37.8196932,145.0106718,5,10849.4,Summer,False,1.7346,put together poorly i bought this phone in may of this year. it is now december and the entirety of my screen has come detached from the phone. the battery life is poor and anytime my phone has to restart it deletes all the fingerprints that were stored off of my phone.,False
ORD180012,ID0361227444,4/04/2019,Nickolson,"[('pearTV', 2), ('iStream', 2), ('Universe Note', 2)]",19820,56.44,-37.8006222,144.9769955,10,17894.44,Autumn,False,1.9135,"crap phone, doesn't work right at all phone is junk. can't stay charged long, keeps losing service. many problems with it!",False
ORD089710,ID0663120956,5/06/2019,Nickolson,"[('pearTV', 1), ('Lucent 330S', 2)]",8770,70.21,-37.8002014,144.955207,15,7524.71,Winter,True,1.562,"phone good, camera not so it's a good phone. the only thing i have to knock at this price point is the camera. it's obvious that whether beauty mode is on or not that olivia still airbrushes the photo to a certain degree. but other than that, it's a great phone",True
ORD157502,ID0635530384,28/07/2019,Thompson,"[('Lucent 330S', 2), ('iStream', 1), ('iAssist Line', 1), ('Olivia x460', 2)]",7285,89.75,-37.81284,144.9430922,0,7374.75,Summer,True,2.2285,five stars loving the phone.,True
ORD299693,ID4735836387,23/09/2019,Thompson,"[('iAssist Line', 2), ('Olivia x460', 1), ('iStream', 2), ('pearTV', 2)]",18595,79.63,-37.8039667,144.9499719,25,14025.88,Autumn,True,1.5201,"overall, not a bad phone the battery life is good! it's fast, reliable, cool features, and the perfect size to fit in the palm of my hand! oh and it's lightweight! doesn't feel like i have a paperweight in my pocket!",True
ORD227063,ID0202498544,13/02/2019,Bakers,"[('Alcon 10', 2), ('Olivia x460', 2)]",20350,70.76,-37.8013457,144.9174425,15,2430.74,Winter,True,2.8947,good phone bad seller seller sold defective product. i like google pixel phones but this was not a pleasant experience,False
ORD109824,ID1681675832,19/02/2019,Nickolson,"[('Toshika 750', 2), ('iStream', 1)]",8790,95.43,-37.8098047,144.9766195,5,8445.93,Summer,True,1.1593,really awesome device. 128 gb internal is rather spacious really awesome device. 128 gb internal is rather spacious.,True
ORD252602,ID3098154904,11/08/2019,Bakers,"[('Toshika 750', 2), ('Olivia x460', 1)]",1525,52.17,-37.8227216,144.9372467,15,1348.42,Autumn,False,1.4132,"i wish i could be refunded my money. i bought this phone for my brother but in only 4 months it was burst when he was talking on it, this is very confusing how a phone gets hot and suddenly bursts itself.",False
ORD210829,ID4742379164,29/05/2019,Thompson,"[('iStream', 1), ('Lucent 330S', 1), ('Universe Note', 1), ('iAssist Line', 1)]",7055,76.74,-37.8068133,144.9490541,15,6073.49,Winter,True,0.6753,"not bad at all great phone and camera. seems to slow as you load on more apps, but still faster than my s5",True
ORD014001,ID0127588855,7/12/2019,Nickolson,"[('pearTV', 1), ('Thunder line', 2), ('Lucent 330S', 1), ('iAssist Line', 1)]",14125,69.56,-37.7996238,144.9450559,25,10663.31,Autumn,False,1.4634,"perfect phone absolutely perfect, just as described and battery life is great. love the edged screen.",True
ORD434894,ID3589872328,24/05/2019,Nickolson,"[('pearTV', 2), ('Alcon 10', 1)]",15850,86.36,-37.8116481,144.9270181,5,15143.86,Summer,True,1.767,"just won't hold a good charge. phone ok, just won't hold a good charge...",False
ORD324977,ID3212035128,11/02/2019,Thompson,"[('iStream', 2), ('iAssist Line', 2)]",4750,63.16,-37.8087101,144.948722,25,3625.66,Winter,False,0.4645,awesome love everything about it.,True
ORD274952,ID3313210934,27/10/2019,Thompson,"[('Lucent 330S', 2), ('iStream', 2), ('Candle Inferno', 2)]",3620,57.3,-37.8183603,144.9670182,25,7816.95,Winter,True,0.2243,"don't lock it i got this as a cheap, basic talk only phone for my son, who promptly set a phone lock password and then forgot it. this bricks the phone. there's no way to reset it. fortunately at&t agreed this was a defect and replaced it, but it's a lousy design. other than that, it does what it says it does.",False
ORD150242,ID0767584651,17/03/2019,Bakers,"[('Olivia x460', 1), ('iAssist Line', 1)]",3450,104.57,-37.8076064,144.9708938,10,3209.57,Spring,True,1.2289,"excelente mi xp demasiado bueno puedo estar conectado a todas las redes sociales revisar mi correo, hacer transcripciones, archivos de excel, power point, es una buena herramienta de trabajo y un excelente telefono",True
ORD057664,ID0746428618,24/12/2019,Bakers,"[('Thunder line', 1), ('Candle Inferno', 2), ('Olivia x460', 2), ('iStream', 2)]",5790,60.6,-37.8096605,144.9923455,10,5271.6,Autumn,True,0.2566,awful. fraud!!! this phone is not unlocked!!! disappointed. digico should not allow items to be listed unlocked if not unlocked!,False
ORD103304,ID1525908996,23/11/2019,Thompson,"[('Olivia x460', 1), ('iAssist Line', 1), ('Toshika 750', 1)]",7770,66.25,-37.8226539,144.9778429,5,7447.75,Autumn,False,0.8578,four stars great phone meets my every needs,False
ORD279317,ID0709969484,16/04/2019,Thompson,"[('Candle Inferno', 2), ('Lucent 330S', 2)]",3320,66.0,-37.814317,144.9359071,15,2888.0,Winter,False,0.9985,smooth great phone,True
ORD429060,ID3132495219,2/12/2019,Nickolson,"[('Candle Inferno', 1), ('Universe Note', 2)]",9070,63.77,-37.8140628,144.9642958,0,9133.77,Autumn,True,0.6842,"quality the back of the phone was broken with the backplate not even fitting on properly. the phone itself had gunk in all of the nooks and crannies, disgusting, would like a refund/replacement to change my rating",False
ORD066986,ID6167417933,10/09/2019,Bakers,"[('Toshika 750', 1), ('Olivia x460', 1), ('Thunder line', 2)]",9905,76.56,-37.8151573,144.959592,15,8495.81,Spring,False,0.9557,five stars very good,True
